{ "" : { "altitude" : "305",
      "city" : "Kvarkeno",
      "country" : "Russia",
      "dst" : "U",
      "iata" : "",
      "icao" : "UWOH",
      "latitude" : "52.078333",
      "longitude" : "59.683333",
      "name" : "Kvarkeno",
      "timezone" : "6"
    },
  "%u0" : { "altitude" : "1060",
      "city" : "Nazran",
      "country" : "Russia",
      "dst" : "N",
      "iata" : "%u0",
      "icao" : "%u04",
      "latitude" : "43.323815",
      "longitude" : "45.017761",
      "name" : "Magas",
      "timezone" : "4"
    },
  "04G" : { "altitude" : "1044",
      "city" : "Youngstown",
      "country" : "United States",
      "dst" : "A",
      "iata" : "04G",
      "icao" : "\\N",
      "latitude" : "41.1304722",
      "longitude" : "-80.6195833",
      "name" : "Lansdowne Airport",
      "timezone" : "-5"
    },
  "06A" : { "altitude" : "264",
      "city" : "Tuskegee",
      "country" : "United States",
      "dst" : "A",
      "iata" : "06A",
      "icao" : "\\N",
      "latitude" : "32.4605722",
      "longitude" : "-85.6800278",
      "name" : "Moton Field Municipal Airport",
      "timezone" : "-5"
    },
  "06C" : { "altitude" : "801",
      "city" : "Schaumburg",
      "country" : "United States",
      "dst" : "A",
      "iata" : "06C",
      "icao" : "\\N",
      "latitude" : "41.9893408",
      "longitude" : "-88.1012428",
      "name" : "Schaumburg Regional",
      "timezone" : "-6"
    },
  "06N" : { "altitude" : "523",
      "city" : "Middletown",
      "country" : "United States",
      "dst" : "A",
      "iata" : "06N",
      "icao" : "\\N",
      "latitude" : "41.431912",
      "longitude" : "-74.3915611",
      "name" : "Randall Airport",
      "timezone" : "-5"
    },
  "09J" : { "altitude" : "11",
      "city" : "Jekyll Island",
      "country" : "United States",
      "dst" : "A",
      "iata" : "09J",
      "icao" : "\\N",
      "latitude" : "31.0744722",
      "longitude" : "-81.4277778",
      "name" : "Jekyll Island Airport",
      "timezone" : "-4"
    },
  "0A9" : { "altitude" : "1593",
      "city" : "Elizabethton",
      "country" : "United States",
      "dst" : "A",
      "iata" : "0A9",
      "icao" : "\\N",
      "latitude" : "36.3712222",
      "longitude" : "-82.1734167",
      "name" : "Elizabethton Municipal Airport",
      "timezone" : "-4"
    },
  "0G6" : { "altitude" : "730",
      "city" : "Bryan",
      "country" : "United States",
      "dst" : "A",
      "iata" : "0G6",
      "icao" : "\\N",
      "latitude" : "41.4673056",
      "longitude" : "-84.5067778",
      "name" : "Williams County Airport",
      "timezone" : "-5"
    },
  "0G7" : { "altitude" : "492",
      "city" : "Seneca Falls",
      "country" : "United States",
      "dst" : "A",
      "iata" : "0G7",
      "icao" : "\\N",
      "latitude" : "42.8835647",
      "longitude" : "-76.7812318",
      "name" : "Finger Lakes Regional Airport",
      "timezone" : "-5"
    },
  "0P2" : { "altitude" : "1000",
      "city" : "Stewartstown",
      "country" : "United States",
      "dst" : "U",
      "iata" : "0P2",
      "icao" : "\\N",
      "latitude" : "39.7948244",
      "longitude" : "-76.6471914",
      "name" : "Shoestring Aviation Airfield",
      "timezone" : "-5"
    },
  "0S9" : { "altitude" : "108",
      "city" : "Port Townsend",
      "country" : "United States",
      "dst" : "A",
      "iata" : "0S9",
      "icao" : "\\N",
      "latitude" : "48.0538086",
      "longitude" : "-122.8106436",
      "name" : "Jefferson County Intl",
      "timezone" : "-8"
    },
  "0W3" : { "altitude" : "409",
      "city" : "Churchville",
      "country" : "United States",
      "dst" : "A",
      "iata" : "0W3",
      "icao" : "\\N",
      "latitude" : "39.5668378",
      "longitude" : "-76.2024028",
      "name" : "Harford County Airport",
      "timezone" : "-5"
    },
  "10C" : { "altitude" : "875",
      "city" : "Greenwood",
      "country" : "United States",
      "dst" : "U",
      "iata" : "10C",
      "icao" : "\\N",
      "latitude" : "42.4028889",
      "longitude" : "-88.3751111",
      "name" : "Galt Field Airport",
      "timezone" : "-6"
    },
  "17G" : { "altitude" : "1003",
      "city" : "Bucyrus",
      "country" : "United States",
      "dst" : "A",
      "iata" : "17G",
      "icao" : "\\N",
      "latitude" : "40.7815556",
      "longitude" : "-82.9748056",
      "name" : "Port Bucyrus-Crawford County Airport",
      "timezone" : "-5"
    },
  "19A" : { "altitude" : "951",
      "city" : "Jefferson",
      "country" : "United States",
      "dst" : "U",
      "iata" : "19A",
      "icao" : "\\N",
      "latitude" : "34.1758638",
      "longitude" : "-83.5615972",
      "name" : "Jackson County Airport",
      "timezone" : "-4"
    },
  "1A3" : { "altitude" : "1789",
      "city" : "Copperhead",
      "country" : "United States",
      "dst" : "A",
      "iata" : "1A3",
      "icao" : "\\N",
      "latitude" : "35.0158056",
      "longitude" : "-84.3468333",
      "name" : "Martin Campbell Field Airport",
      "timezone" : "-4"
    },
  "1B9" : { "altitude" : "122",
      "city" : "Mansfield",
      "country" : "United States",
      "dst" : "A",
      "iata" : "1B9",
      "icao" : "\\N",
      "latitude" : "42.0001331",
      "longitude" : "-71.1967714",
      "name" : "Mansfield Municipal",
      "timezone" : "-5"
    },
  "1C9" : { "altitude" : "152",
      "city" : "Hollister",
      "country" : "United States",
      "dst" : "A",
      "iata" : "1C9",
      "icao" : "\\N",
      "latitude" : "54.013333333333335",
      "longitude" : "-124.76833333333333",
      "name" : "Frazier Lake Airpark",
      "timezone" : "-8"
    },
  "1CS" : { "altitude" : "670",
      "city" : "Bolingbrook",
      "country" : "United States",
      "dst" : "U",
      "iata" : "1CS",
      "icao" : "\\N",
      "latitude" : "41.6959744",
      "longitude" : "-88.1292306",
      "name" : "Clow International Airport",
      "timezone" : "-6"
    },
  "1G3" : { "altitude" : "1134",
      "city" : "Kent",
      "country" : "United States",
      "dst" : "A",
      "iata" : "1G3",
      "icao" : "\\N",
      "latitude" : "41.1513889",
      "longitude" : "-81.4151111",
      "name" : "Kent State Airport",
      "timezone" : "-4"
    },
  "1OH" : { "altitude" : "885",
      "city" : "St. Marys",
      "country" : "United States",
      "dst" : "U",
      "iata" : "1OH",
      "icao" : "\\N",
      "latitude" : "40.5553253",
      "longitude" : "-84.3866186",
      "name" : "Fortman Airport",
      "timezone" : "-5"
    },
  "1RL" : { "altitude" : "10",
      "city" : "Point Roberts",
      "country" : "United States",
      "dst" : "A",
      "iata" : "1RL",
      "icao" : "K1RL",
      "latitude" : "48.9797222",
      "longitude" : "-123.0788889",
      "name" : "Point Roberts Airpark",
      "timezone" : "-7"
    },
  "24C" : { "altitude" : "681",
      "city" : "Lowell",
      "country" : "United States",
      "dst" : "A",
      "iata" : "24C",
      "icao" : "\\N",
      "latitude" : "42.95392",
      "longitude" : "-85.3439058",
      "name" : "Lowell City Airport",
      "timezone" : "-5"
    },
  "24J" : { "altitude" : "104",
      "city" : "Live Oak",
      "country" : "United States",
      "dst" : "A",
      "iata" : "24J",
      "icao" : "\\N",
      "latitude" : "30.300125",
      "longitude" : "-83.0246944",
      "name" : "Suwannee County Airport",
      "timezone" : "-5"
    },
  "25D" : { "altitude" : "925",
      "city" : "Forest Lake",
      "country" : "United States",
      "dst" : "A",
      "iata" : "25D",
      "icao" : "\\N",
      "latitude" : "45.2477456",
      "longitude" : "-92.9943853",
      "name" : "Forest Lake Airport",
      "timezone" : "-5"
    },
  "29D" : { "altitude" : "1371",
      "city" : "Grove City",
      "country" : "United States",
      "dst" : "A",
      "iata" : "29D",
      "icao" : "\\N",
      "latitude" : "41.1460278",
      "longitude" : "-80.16775",
      "name" : "Grove City Airport",
      "timezone" : "-5"
    },
  "2A0" : { "altitude" : "718",
      "city" : "Dayton",
      "country" : "United States",
      "dst" : "A",
      "iata" : "2A0",
      "icao" : "\\N",
      "latitude" : "35.48625",
      "longitude" : "-84.9310833",
      "name" : "Mark Anton Airport",
      "timezone" : "-4"
    },
  "2G2" : { "altitude" : "1196",
      "city" : "Steubenville",
      "country" : "United States",
      "dst" : "A",
      "iata" : "2G2",
      "icao" : "\\N",
      "latitude" : "40.3602179",
      "longitude" : "-80.7008742",
      "name" : "Jefferson County Airpark",
      "timezone" : "-4"
    },
  "2G9" : { "altitude" : "2275",
      "city" : "Somerset",
      "country" : "United States",
      "dst" : "A",
      "iata" : "2G9",
      "icao" : "\\N",
      "latitude" : "40.0388708",
      "longitude" : "-79.0149951",
      "name" : "Somerset County Airport",
      "timezone" : "-5"
    },
  "2J9" : { "altitude" : "225",
      "city" : "Quincy",
      "country" : "United States",
      "dst" : "A",
      "iata" : "2J9",
      "icao" : "\\N",
      "latitude" : "30.5978708",
      "longitude" : "-84.557425",
      "name" : "Quincy Municipal Airport",
      "timezone" : "-5"
    },
  "369" : { "altitude" : "18",
      "city" : "Atmautluak",
      "country" : "United States",
      "dst" : "A",
      "iata" : "369",
      "icao" : "\\N",
      "latitude" : "60.866667",
      "longitude" : "-162.273056",
      "name" : "Atmautluak Airport",
      "timezone" : "-10"
    },
  "36U" : { "altitude" : "5637",
      "city" : "Heber",
      "country" : "United States",
      "dst" : "A",
      "iata" : "36U",
      "icao" : "\\N",
      "latitude" : "40.4818056",
      "longitude" : "-111.4288056",
      "name" : "Heber City Municipal Airport",
      "timezone" : "-6"
    },
  "38W" : { "altitude" : "106",
      "city" : "Lynden",
      "country" : "United States",
      "dst" : "A",
      "iata" : "38W",
      "icao" : "\\N",
      "latitude" : "48.9558961",
      "longitude" : "-122.4581183",
      "name" : "Lynden Airport",
      "timezone" : "-8"
    },
  "3D2" : { "altitude" : "773",
      "city" : "Ephraim",
      "country" : "United States",
      "dst" : "A",
      "iata" : "3D2",
      "icao" : "\\N",
      "latitude" : "45.1354167",
      "longitude" : "-87.1879444",
      "name" : "Ephraim-Gibraltar Airport",
      "timezone" : "-5"
    },
  "3G3" : { "altitude" : "974",
      "city" : "Wadsworth",
      "country" : "United States",
      "dst" : "A",
      "iata" : "3G3",
      "icao" : "\\N",
      "latitude" : "41.0031572",
      "longitude" : "-81.7564401",
      "name" : "Wadsworth Municipal",
      "timezone" : "-5"
    },
  "3G4" : { "altitude" : "1206",
      "city" : "Ashland",
      "country" : "United States",
      "dst" : "A",
      "iata" : "3G4",
      "icao" : "\\N",
      "latitude" : "40.9029722",
      "longitude" : "-82.2556389",
      "name" : "Ashland County Airport",
      "timezone" : "-5"
    },
  "3J1" : { "altitude" : "79",
      "city" : "Ridgeland",
      "country" : "United States",
      "dst" : "A",
      "iata" : "3J1",
      "icao" : "\\N",
      "latitude" : "32.4934167",
      "longitude" : "-80.99175",
      "name" : "Ridgeland Airport",
      "timezone" : "-5"
    },
  "3W2" : { "altitude" : "595",
      "city" : "Put-in-Bay",
      "country" : "United States",
      "dst" : "A",
      "iata" : "3W2",
      "icao" : "\\N",
      "latitude" : "41.3521",
      "longitude" : "-82.497",
      "name" : "Put-in-Bay Airport",
      "timezone" : "-6"
    },
  "40J" : { "altitude" : "44",
      "city" : "Perry",
      "country" : "United States",
      "dst" : "A",
      "iata" : "40J",
      "icao" : "\\N",
      "latitude" : "30.0692778",
      "longitude" : "-83.5805833",
      "name" : "Perry-Foley Airport",
      "timezone" : "-5"
    },
  "41N" : { "altitude" : "900",
      "city" : "Braceville",
      "country" : "United States",
      "dst" : "A",
      "iata" : "41N",
      "icao" : "\\N",
      "latitude" : "41.2111675",
      "longitude" : "-80.9692572",
      "name" : "Braceville Airport",
      "timezone" : "-5"
    },
  "47A" : { "altitude" : "1219",
      "city" : "Canton",
      "country" : "United States",
      "dst" : "A",
      "iata" : "47A",
      "icao" : "\\N",
      "latitude" : "34.3122175",
      "longitude" : "-84.4221556",
      "name" : "Cherokee County Airport",
      "timezone" : "-4"
    },
  "49A" : { "altitude" : "1486",
      "city" : "Ellijay",
      "country" : "United States",
      "dst" : "A",
      "iata" : "49A",
      "icao" : "\\N",
      "latitude" : "34.6282222",
      "longitude" : "-84.5265833",
      "name" : "Gilmer County Airport",
      "timezone" : "-4"
    },
  "49X" : { "altitude" : "638",
      "city" : "Chemehuevi Valley",
      "country" : "United States",
      "dst" : "A",
      "iata" : "49X",
      "icao" : "\\N",
      "latitude" : "34.528889",
      "longitude" : "-114.431971",
      "name" : "Chemehuevi Valley",
      "timezone" : "-8"
    },
  "4A4" : { "altitude" : "974",
      "city" : "Cedartown",
      "country" : "United States",
      "dst" : "A",
      "iata" : "4A4",
      "icao" : "\\N",
      "latitude" : "34.0186944",
      "longitude" : "-85.1464722",
      "name" : "Polk County Airport - Cornelius Moore Field",
      "timezone" : "-4"
    },
  "4A7" : { "altitude" : "874",
      "city" : "Hampton",
      "country" : "United States",
      "dst" : "A",
      "iata" : "4A7",
      "icao" : "K4A7",
      "latitude" : "33.389099",
      "longitude" : "-84.332397",
      "name" : "Clayton County Tara Field",
      "timezone" : "-5"
    },
  "4A9" : { "altitude" : "877",
      "city" : "Fort Payne",
      "country" : "United States",
      "dst" : "A",
      "iata" : "4A9",
      "icao" : "\\N",
      "latitude" : "34.4736944",
      "longitude" : "-85.7213889",
      "name" : "Isbell Field Airport",
      "timezone" : "-5"
    },
  "4B8" : { "altitude" : "202",
      "city" : "Plainville",
      "country" : "United States",
      "dst" : "A",
      "iata" : "4B8",
      "icao" : "\\N",
      "latitude" : "41.6893333",
      "longitude" : "-72.8646944",
      "name" : "Robertson Field",
      "timezone" : "-5"
    },
  "4G0" : { "altitude" : "1187",
      "city" : "Monroeville",
      "country" : "United States",
      "dst" : "A",
      "iata" : "4G0",
      "icao" : "\\N",
      "latitude" : "40.4526389",
      "longitude" : "-79.7749167",
      "name" : "Pittsburgh-Monroeville Airport",
      "timezone" : "-5"
    },
  "4G2" : { "altitude" : "751",
      "city" : "Hamburg",
      "country" : "United States",
      "dst" : "A",
      "iata" : "4G2",
      "icao" : "\\N",
      "latitude" : "42.7008925",
      "longitude" : "-78.9147569",
      "name" : "Hamburg Inc Airport",
      "timezone" : "-5"
    },
  "4G4" : { "altitude" : "1070",
      "city" : "Youngstown",
      "country" : "United States",
      "dst" : "A",
      "iata" : "4G4",
      "icao" : "\\N",
      "latitude" : "40.9617953",
      "longitude" : "-80.6773264",
      "name" : "Youngstown Elser Metro Airport",
      "timezone" : "-5"
    },
  "4I7" : { "altitude" : "842",
      "city" : "Greencastle",
      "country" : "United States",
      "dst" : "U",
      "iata" : "4I7",
      "icao" : "\\N",
      "latitude" : "39.6335556",
      "longitude" : "-86.8138056",
      "name" : "Putnam County Airport",
      "timezone" : "-5"
    },
  "4U9" : { "altitude" : "6007",
      "city" : "Dell",
      "country" : "United States",
      "dst" : "A",
      "iata" : "4U9",
      "icao" : "K4U9",
      "latitude" : "44.7357483",
      "longitude" : "-112.7200133",
      "name" : "Dell Flight Strip",
      "timezone" : "-7"
    },
  "52A" : { "altitude" : "694",
      "city" : "Madison",
      "country" : "United States",
      "dst" : "A",
      "iata" : "52A",
      "icao" : "K52A",
      "latitude" : "33.612125",
      "longitude" : "-83.4604444",
      "name" : "Madison GA Municipal Airport",
      "timezone" : "-5"
    },
  "54J" : { "altitude" : "289",
      "city" : "DeFuniak Springs",
      "country" : "United States",
      "dst" : "A",
      "iata" : "54J",
      "icao" : "\\N",
      "latitude" : "30.7311111",
      "longitude" : "-86.1537778",
      "name" : "DeFuniak Springs Airport",
      "timezone" : "-5"
    },
  "55J" : { "altitude" : "16",
      "city" : "Fernandina Beach",
      "country" : "United States",
      "dst" : "A",
      "iata" : "55J",
      "icao" : "\\N",
      "latitude" : "30.6118333",
      "longitude" : "-81.4611944",
      "name" : "Fernandina Beach Municipal Airport",
      "timezone" : "-4"
    },
  "57C" : { "altitude" : "860",
      "city" : "East Troy",
      "country" : "United States",
      "dst" : "A",
      "iata" : "57C",
      "icao" : "K57C",
      "latitude" : "42.7971667",
      "longitude" : "-88.3726111",
      "name" : "East Troy Municipal Airport",
      "timezone" : "-6"
    },
  "60J" : { "altitude" : "32",
      "city" : "Ocean Isle Beach",
      "country" : "United States",
      "dst" : "U",
      "iata" : "60J",
      "icao" : "\\N",
      "latitude" : "33.9085056",
      "longitude" : "-78.4366722",
      "name" : "Ocean Isle Beach Airport",
      "timezone" : "-5"
    },
  "6A2" : { "altitude" : "958",
      "city" : "Griffin",
      "country" : "United States",
      "dst" : "A",
      "iata" : "6A2",
      "icao" : "\\N",
      "latitude" : "33.2269722",
      "longitude" : "-84.2749444",
      "name" : "Griffin-Spalding County Airport",
      "timezone" : "-5"
    },
  "6K8" : { "altitude" : "1639",
      "city" : "Tok",
      "country" : "United States",
      "dst" : "A",
      "iata" : "6K8",
      "icao" : "PFTO",
      "latitude" : "63.329444",
      "longitude" : "-142.953611",
      "name" : "Tok Junction Airport",
      "timezone" : "-9"
    },
  "6S0" : { "altitude" : "4492",
      "city" : "Big Timber",
      "country" : "United States",
      "dst" : "A",
      "iata" : "6S0",
      "icao" : "K6S0",
      "latitude" : "45.8063889",
      "longitude" : "-109.9811111",
      "name" : "Big Timber Airport",
      "timezone" : "-7"
    },
  "6S2" : { "altitude" : "51",
      "city" : "Florence",
      "country" : "United States",
      "dst" : "A",
      "iata" : "6S2",
      "icao" : "\\N",
      "latitude" : "43.9828168",
      "longitude" : "-124.1113687",
      "name" : "Florence",
      "timezone" : "-7"
    },
  "6Y8" : { "altitude" : "664",
      "city" : "Beaver Island",
      "country" : "United States",
      "dst" : "A",
      "iata" : "6Y8",
      "icao" : "\\N",
      "latitude" : "45.721111",
      "longitude" : "-85.520278",
      "name" : "Welke Airport",
      "timezone" : "-5"
    },
  "70J" : { "altitude" : "265",
      "city" : "Cairo",
      "country" : "United States",
      "dst" : "A",
      "iata" : "70J",
      "icao" : "\\N",
      "latitude" : "30.8879767",
      "longitude" : "-84.1547353",
      "name" : "Cairo-Grady County Airport",
      "timezone" : "-5"
    },
  "70N" : { "altitude" : "1729",
      "city" : "Sterling",
      "country" : "United States",
      "dst" : "A",
      "iata" : "70N",
      "icao" : "\\N",
      "latitude" : "41.3473569",
      "longitude" : "-75.4158972",
      "name" : "Spring Hill Airport",
      "timezone" : "-5"
    },
  "7A4" : { "altitude" : "990",
      "city" : "Apple River",
      "country" : "United States",
      "dst" : "A",
      "iata" : "7A4",
      "icao" : "\\N",
      "latitude" : "42.4664444",
      "longitude" : "-90.1693889",
      "name" : "Foster Field",
      "timezone" : "-6"
    },
  "7D9" : { "altitude" : "820",
      "city" : "Geneva",
      "country" : "United States",
      "dst" : "A",
      "iata" : "7D9",
      "icao" : "\\N",
      "latitude" : "41.7778322",
      "longitude" : "-80.9039797",
      "name" : "Germack Airport",
      "timezone" : "-5"
    },
  "7N7" : { "altitude" : "40",
      "city" : "Pedricktown",
      "country" : "United States",
      "dst" : "A",
      "iata" : "7N7",
      "icao" : "\\N",
      "latitude" : "39.7355633",
      "longitude" : "-75.3977211",
      "name" : "Spitfire Aerodrome",
      "timezone" : "-5"
    },
  "8M8" : { "altitude" : "1218",
      "city" : "Lewiston",
      "country" : "United States",
      "dst" : "A",
      "iata" : "8M8",
      "icao" : "\\N",
      "latitude" : "44.8065278",
      "longitude" : "-84.2761944",
      "name" : "Garland Airport",
      "timezone" : "-5"
    },
  "93C" : { "altitude" : "742",
      "city" : "Richland Center",
      "country" : "United States",
      "dst" : "A",
      "iata" : "93C",
      "icao" : "\\N",
      "latitude" : "43.2833575",
      "longitude" : "-90.2982819",
      "name" : "Richland Airport",
      "timezone" : "-6"
    },
  "99N" : { "altitude" : "231",
      "city" : "Bamberg",
      "country" : "United States",
      "dst" : "A",
      "iata" : "99N",
      "icao" : "\\N",
      "latitude" : "33.3045278",
      "longitude" : "-81.1084167",
      "name" : "Bamberg County Airport",
      "timezone" : "-5"
    },
  "9A1" : { "altitude" : "809",
      "city" : "Covington",
      "country" : "United States",
      "dst" : "A",
      "iata" : "9A1",
      "icao" : "\\N",
      "latitude" : "33.6323083",
      "longitude" : "-83.8474472",
      "name" : "Covington Municipal Airport",
      "timezone" : "-4"
    },
  "9A5" : { "altitude" : "777",
      "city" : "LaFayette",
      "country" : "United States",
      "dst" : "A",
      "iata" : "9A5",
      "icao" : "\\N",
      "latitude" : "34.6884792",
      "longitude" : "-85.2903319",
      "name" : "Barwick Lafayette Airport",
      "timezone" : "-4"
    },
  "A39" : { "altitude" : "1300",
      "city" : "Phoenix",
      "country" : "United States",
      "dst" : "A",
      "iata" : "A39",
      "icao" : "KA39",
      "latitude" : "32.99169921875",
      "longitude" : "-111.920997619629",
      "name" : "Phoenix Regional Airport",
      "timezone" : "-7"
    },
  "AAA" : { "altitude" : "10",
      "city" : "Anaa",
      "country" : "French Polynesia",
      "dst" : "U",
      "iata" : "AAA",
      "icao" : "NTGA",
      "latitude" : "-17.352606",
      "longitude" : "-145.509956",
      "name" : "Anaa",
      "timezone" : "-10"
    },
  "AAC" : { "altitude" : "121",
      "city" : "El Arish",
      "country" : "Egypt",
      "dst" : "U",
      "iata" : "AAC",
      "icao" : "HEAR",
      "latitude" : "31.073333",
      "longitude" : "33.835833",
      "name" : "El Arish International Airport",
      "timezone" : "2"
    },
  "AAE" : { "altitude" : "16",
      "city" : "Annaba",
      "country" : "Algeria",
      "dst" : "N",
      "iata" : "AAE",
      "icao" : "DABB",
      "latitude" : "36.822225",
      "longitude" : "7.809167",
      "name" : "Annaba",
      "timezone" : "1"
    },
  "AAF" : { "altitude" : "20",
      "city" : "Apalachicola",
      "country" : "United States",
      "dst" : "A",
      "iata" : "AAF",
      "icao" : "KAAF",
      "latitude" : "29.7276066",
      "longitude" : "-85.0274416",
      "name" : "Apalachicola Regional Airport",
      "timezone" : "-6"
    },
  "AAH" : { "altitude" : "570",
      "city" : "Aachen",
      "country" : "Germany",
      "dst" : "E",
      "iata" : "AAH",
      "icao" : "EDKA",
      "latitude" : "50.823194",
      "longitude" : "6.186389",
      "name" : "Flugplatz Merzbrueck",
      "timezone" : "1"
    },
  "AAJ" : { "altitude" : "50",
      "city" : "Cayana",
      "country" : "Suriname",
      "dst" : "S",
      "iata" : "AAJ",
      "icao" : "\\N",
      "latitude" : "3.898611",
      "longitude" : "-55.577778",
      "name" : "Cayana Airstrip",
      "timezone" : "-4"
    },
  "AAK" : { "altitude" : "6",
      "city" : "Buariki",
      "country" : "Kiribati",
      "dst" : "U",
      "iata" : "AAK",
      "icao" : "NGUK",
      "latitude" : "0.185278",
      "longitude" : "173.636389",
      "name" : "Aranuka Airport",
      "timezone" : "10"
    },
  "AAL" : { "altitude" : "10",
      "city" : "Aalborg",
      "country" : "Denmark",
      "dst" : "E",
      "iata" : "AAL",
      "icao" : "EKYT",
      "latitude" : "57.092789",
      "longitude" : "9.849164",
      "name" : "Aalborg",
      "timezone" : "1"
    },
  "AAM" : { "altitude" : "1124",
      "city" : "Malamala",
      "country" : "South Africa",
      "dst" : "U",
      "iata" : "AAM",
      "icao" : "FAMD",
      "latitude" : "-24.818111",
      "longitude" : "31.544584",
      "name" : "Malamala Airport",
      "timezone" : "2"
    },
  "AAN" : { "altitude" : "869",
      "city" : "Al Ain",
      "country" : "United Arab Emirates",
      "dst" : "U",
      "iata" : "AAN",
      "icao" : "OMAL",
      "latitude" : "24.261667",
      "longitude" : "55.609167",
      "name" : "Al Ain International Airport",
      "timezone" : "4"
    },
  "AAO" : { "altitude" : "721",
      "city" : "Anaco",
      "country" : "Venezuela",
      "dst" : "U",
      "iata" : "AAO",
      "icao" : "SVAN",
      "latitude" : "9.430225",
      "longitude" : "-64.470725",
      "name" : "Anaco",
      "timezone" : "-4"
    },
  "AAQ" : { "altitude" : "174",
      "city" : "Anapa",
      "country" : "Russia",
      "dst" : "N",
      "iata" : "AAQ",
      "icao" : "URKA",
      "latitude" : "45.002097",
      "longitude" : "37.347272",
      "name" : "Vityazevo",
      "timezone" : "4"
    },
  "AAR" : { "altitude" : "82",
      "city" : "Aarhus",
      "country" : "Denmark",
      "dst" : "E",
      "iata" : "AAR",
      "icao" : "EKAH",
      "latitude" : "56.300017",
      "longitude" : "10.619008",
      "name" : "Aarhus",
      "timezone" : "1"
    },
  "AAT" : { "altitude" : "2491",
      "city" : "Altay",
      "country" : "China",
      "dst" : "U",
      "iata" : "AAT",
      "icao" : "ZWAT",
      "latitude" : "47.866667",
      "longitude" : "88.116667",
      "name" : "Altay Airport",
      "timezone" : "8"
    },
  "AAU" : { "altitude" : "6",
      "city" : "Savai\\\\'i",
      "country" : "Samoa",
      "dst" : "U",
      "iata" : "AAU",
      "icao" : "\\N",
      "latitude" : "-13.505",
      "longitude" : "-172.627778",
      "name" : "Asau Airport",
      "timezone" : "-11"
    },
  "AAX" : { "altitude" : "3276",
      "city" : "Araxa",
      "country" : "Brazil",
      "dst" : "S",
      "iata" : "AAX",
      "icao" : "SBAX",
      "latitude" : "-19.563056",
      "longitude" : "-46.960278",
      "name" : "Araxa Airport",
      "timezone" : "-3"
    },
  "AAY" : { "altitude" : "134",
      "city" : "Al Ghaidah Intl",
      "country" : "Yemen",
      "dst" : "U",
      "iata" : "AAY",
      "icao" : "OYGD",
      "latitude" : "16.191667",
      "longitude" : "52.175",
      "name" : "Al Ghaidah Intl",
      "timezone" : "3"
    },
  "AAZ" : { "altitude" : "7779",
      "city" : "Quezaltenango",
      "country" : "Guatemala",
      "dst" : "U",
      "iata" : "AAZ",
      "icao" : "MGQZ",
      "latitude" : "14.8656",
      "longitude" : "-91.502",
      "name" : "Quezaltenango Airport",
      "timezone" : "-6"
    },
  "ABA" : { "altitude" : "831",
      "city" : "Abakan",
      "country" : "Russia",
      "dst" : "N",
      "iata" : "ABA",
      "icao" : "UNAA",
      "latitude" : "53.74",
      "longitude" : "91.385",
      "name" : "Abakan",
      "timezone" : "8"
    },
  "ABD" : { "altitude" : "19",
      "city" : "Abadan",
      "country" : "Iran",
      "dst" : "E",
      "iata" : "ABD",
      "icao" : "OIAA",
      "latitude" : "30.371111",
      "longitude" : "48.228333",
      "name" : "Abadan",
      "timezone" : "4"
    },
  "ABE" : { "altitude" : "393",
      "city" : "Allentown",
      "country" : "United States",
      "dst" : "A",
      "iata" : "ABE",
      "icao" : "KABE",
      "latitude" : "40.652083",
      "longitude" : "-75.440806",
      "name" : "Lehigh Valley Intl",
      "timezone" : "-5"
    },
  "ABF" : { "altitude" : "1",
      "city" : "Abaiang Atoll",
      "country" : "Kiribati",
      "dst" : "U",
      "iata" : "ABF",
      "icao" : "NGAB",
      "latitude" : "1.8",
      "longitude" : "173.04",
      "name" : "Abaiang Atoll Airport",
      "timezone" : "-12"
    },
  "ABI" : { "altitude" : "1791",
      "city" : "Abilene",
      "country" : "United States",
      "dst" : "A",
      "iata" : "ABI",
      "icao" : "KABI",
      "latitude" : "32.411319",
      "longitude" : "-99.681897",
      "name" : "Abilene Rgnl",
      "timezone" : "-6"
    },
  "ABJ" : { "altitude" : "21",
      "city" : "Abidjan",
      "country" : "Cote d'Ivoire",
      "dst" : "N",
      "iata" : "ABJ",
      "icao" : "DIAP",
      "latitude" : "5.261386",
      "longitude" : "-3.926294",
      "name" : "Abidjan Felix Houphouet Boigny Intl",
      "timezone" : "0"
    },
  "ABK" : { "altitude" : "1800",
      "city" : "Kabri Dehar",
      "country" : "Ethiopia",
      "dst" : "U",
      "iata" : "ABK",
      "icao" : "HAKD",
      "latitude" : "6.734",
      "longitude" : "44.253",
      "name" : "Kabri Dehar Airport",
      "timezone" : "3"
    },
  "ABL" : { "altitude" : "334",
      "city" : "Ambler",
      "country" : "United States",
      "dst" : "A",
      "iata" : "ABL",
      "icao" : "PAFM",
      "latitude" : "67.106389",
      "longitude" : "-157.8575",
      "name" : "Ambler Airport",
      "timezone" : "-9"
    },
  "ABM" : { "altitude" : "34",
      "city" : "Amberley",
      "country" : "Australia",
      "dst" : "O",
      "iata" : "ABM",
      "icao" : "YBAM",
      "latitude" : "-10.950833",
      "longitude" : "142.459444",
      "name" : "Bamaga Injinoo",
      "timezone" : "10"
    },
  "ABN" : { "altitude" : "10",
      "city" : "Albina",
      "country" : "Suriname",
      "dst" : "U",
      "iata" : "ABN",
      "icao" : "SMBN",
      "latitude" : "5.516667",
      "longitude" : "-54.05",
      "name" : "Albina Airstrip",
      "timezone" : "-3"
    },
  "ABQ" : { "altitude" : "5355",
      "city" : "Albuquerque",
      "country" : "United States",
      "dst" : "A",
      "iata" : "ABQ",
      "icao" : "KABQ",
      "latitude" : "35.0402222",
      "longitude" : "-106.6091944",
      "name" : "Albuquerque International Sunport",
      "timezone" : "-7"
    },
  "ABR" : { "altitude" : "1302",
      "city" : "Aberdeen",
      "country" : "United States",
      "dst" : "A",
      "iata" : "ABR",
      "icao" : "KABR",
      "latitude" : "45.4491",
      "longitude" : "-98.4218",
      "name" : "Aberdeen Regional Airport",
      "timezone" : "-6"
    },
  "ABS" : { "altitude" : "616",
      "city" : "Abu Simbel",
      "country" : "Egypt",
      "dst" : "U",
      "iata" : "ABS",
      "icao" : "HEBL",
      "latitude" : "22.375953",
      "longitude" : "31.611722",
      "name" : "Abu Simbel",
      "timezone" : "2"
    },
  "ABT" : { "altitude" : "5486",
      "city" : "El-baha",
      "country" : "Saudi Arabia",
      "dst" : "U",
      "iata" : "ABT",
      "icao" : "OEBA",
      "latitude" : "20.296139",
      "longitude" : "41.634277",
      "name" : "Al Baha",
      "timezone" : "3"
    },
  "ABV" : { "altitude" : "1123",
      "city" : "Abuja",
      "country" : "Nigeria",
      "dst" : "N",
      "iata" : "ABV",
      "icao" : "DNAA",
      "latitude" : "9.006792",
      "longitude" : "7.263172",
      "name" : "Nnamdi Azikiwe Intl",
      "timezone" : "1"
    },
  "ABX" : { "altitude" : "539",
      "city" : "Albury",
      "country" : "Australia",
      "dst" : "O",
      "iata" : "ABX",
      "icao" : "YMAY",
      "latitude" : "-36.067778",
      "longitude" : "146.958056",
      "name" : "Albury",
      "timezone" : "10"
    },
  "ABY" : { "altitude" : "197",
      "city" : "Albany",
      "country" : "United States",
      "dst" : "A",
      "iata" : "ABY",
      "icao" : "KABY",
      "latitude" : "31.5355",
      "longitude" : "-84.1945",
      "name" : "Southwest Georgia Regional Airport",
      "timezone" : "-5"
    },
  "ABZ" : { "altitude" : "215",
      "city" : "Aberdeen",
      "country" : "United Kingdom",
      "dst" : "E",
      "iata" : "ABZ",
      "icao" : "EGPD",
      "latitude" : "57.201944",
      "longitude" : "-2.197778",
      "name" : "Dyce",
      "timezone" : "0"
    },
  "ACA" : { "altitude" : "16",
      "city" : "Acapulco",
      "country" : "Mexico",
      "dst" : "S",
      "iata" : "ACA",
      "icao" : "MMAA",
      "latitude" : "16.757061",
      "longitude" : "-99.753953",
      "name" : "General Juan N Alvarez Intl",
      "timezone" : "-6"
    },
  "ACC" : { "altitude" : "205",
      "city" : "Accra",
      "country" : "Ghana",
      "dst" : "N",
      "iata" : "ACC",
      "icao" : "DGAA",
      "latitude" : "5.605186",
      "longitude" : "-0.166786",
      "name" : "Kotoka Intl",
      "timezone" : "0"
    },
  "ACD" : { "altitude" : "50",
      "city" : "Acandi",
      "country" : "Colombia",
      "dst" : "U",
      "iata" : "ACD",
      "icao" : "SKAD",
      "latitude" : "8.516667",
      "longitude" : "-77.3",
      "name" : "Alcides Fernandez Airport",
      "timezone" : "-5"
    },
  "ACE" : { "altitude" : "47",
      "city" : "Las Palmas",
      "country" : "Spain",
      "dst" : "E",
      "iata" : "ACE",
      "icao" : "GCRR",
      "latitude" : "28.945464",
      "longitude" : "-13.605225",
      "name" : "Lanzarote",
      "timezone" : "0"
    },
  "ACH" : { "altitude" : "1306",
      "city" : "Altenrhein",
      "country" : "Switzerland",
      "dst" : "E",
      "iata" : "ACH",
      "icao" : "LSZR",
      "latitude" : "47.485033",
      "longitude" : "9.560775",
      "name" : "St Gallen Altenrhein",
      "timezone" : "1"
    },
  "ACI" : { "altitude" : "290",
      "city" : "Alderney",
      "country" : "Guernsey",
      "dst" : "E",
      "iata" : "ACI",
      "icao" : "EGJA",
      "latitude" : "49.706111",
      "longitude" : "-2.214722",
      "name" : "Alderney",
      "timezone" : "0"
    },
  "ACK" : { "altitude" : "48",
      "city" : "Nantucket",
      "country" : "United States",
      "dst" : "A",
      "iata" : "ACK",
      "icao" : "KACK",
      "latitude" : "41.253053",
      "longitude" : "-70.060181",
      "name" : "Nantucket Mem",
      "timezone" : "-5"
    },
  "ACP" : { "altitude" : "4396",
      "city" : "Maragheh",
      "country" : "Iran",
      "dst" : "E",
      "iata" : "ACP",
      "icao" : "OITM",
      "latitude" : "37.348017",
      "longitude" : "46.127903",
      "name" : "Sahand Airport",
      "timezone" : "3.5"
    },
  "ACR" : { "altitude" : "1250",
      "city" : "Araracuara",
      "country" : "Colombia",
      "dst" : "U",
      "iata" : "ACR",
      "icao" : "SKAC",
      "latitude" : "-0.58",
      "longitude" : "-72.41",
      "name" : "Araracuara Airport",
      "timezone" : "-5"
    },
  "ACT" : { "altitude" : "516",
      "city" : "Waco",
      "country" : "United States",
      "dst" : "A",
      "iata" : "ACT",
      "icao" : "KACT",
      "latitude" : "31.611289",
      "longitude" : "-97.230519",
      "name" : "Waco Rgnl",
      "timezone" : "-6"
    },
  "ACU" : { "altitude" : "0",
      "city" : "Achutupo",
      "country" : "Panama",
      "dst" : "U",
      "iata" : "ACU",
      "icao" : "\\N",
      "latitude" : "9.2",
      "longitude" : "-77.98",
      "name" : "Achutupo Airport",
      "timezone" : "-5"
    },
  "ACV" : { "altitude" : "221",
      "city" : "Arcata CA",
      "country" : "United States",
      "dst" : "A",
      "iata" : "ACV",
      "icao" : "KACV",
      "latitude" : "40.978111",
      "longitude" : "-124.108611",
      "name" : "Arcata",
      "timezone" : "-8"
    },
  "ACX" : { "altitude" : "500",
      "city" : "Xingyi",
      "country" : "China",
      "dst" : "U",
      "iata" : "ACX",
      "icao" : "\\N",
      "latitude" : "25.0882",
      "longitude" : "104.9587",
      "name" : "Xingyi Airport",
      "timezone" : "8"
    },
  "ACY" : { "altitude" : "75",
      "city" : "Atlantic City",
      "country" : "United States",
      "dst" : "A",
      "iata" : "ACY",
      "icao" : "KACY",
      "latitude" : "39.457583",
      "longitude" : "-74.577167",
      "name" : "Atlantic City Intl",
      "timezone" : "-5"
    },
  "ADA" : { "altitude" : "65",
      "city" : "Adana",
      "country" : "Turkey",
      "dst" : "E",
      "iata" : "ADA",
      "icao" : "LTAF",
      "latitude" : "36.982166",
      "longitude" : "35.280388",
      "name" : "Adana",
      "timezone" : "2"
    },
  "ADB" : { "altitude" : "412",
      "city" : "Izmir",
      "country" : "Turkey",
      "dst" : "E",
      "iata" : "ADB",
      "icao" : "LTBJ",
      "latitude" : "38.292392",
      "longitude" : "27.156953",
      "name" : "Adnan Menderes",
      "timezone" : "2"
    },
  "ADD" : { "altitude" : "7656",
      "city" : "Addis Ababa",
      "country" : "Ethiopia",
      "dst" : "U",
      "iata" : "ADD",
      "icao" : "HAAB",
      "latitude" : "8.977889",
      "longitude" : "38.799319",
      "name" : "Bole Intl",
      "timezone" : "3"
    },
  "ADE" : { "altitude" : "7",
      "city" : "Aden",
      "country" : "Yemen",
      "dst" : "U",
      "iata" : "ADE",
      "icao" : "OYAA",
      "latitude" : "12.829542",
      "longitude" : "45.028792",
      "name" : "Aden Intl",
      "timezone" : "3"
    },
  "ADF" : { "altitude" : "2216",
      "city" : "Adiyaman",
      "country" : "Turkey",
      "dst" : "E",
      "iata" : "ADF",
      "icao" : "LTCP",
      "latitude" : "37.7314",
      "longitude" : "38.4689",
      "name" : "Adiyaman Airport",
      "timezone" : "2"
    },
  "ADJ" : { "altitude" : "2555",
      "city" : "Amman",
      "country" : "Jordan",
      "dst" : "E",
      "iata" : "ADJ",
      "icao" : "OJAM",
      "latitude" : "31.972703",
      "longitude" : "35.991569",
      "name" : "Marka Intl",
      "timezone" : "2"
    },
  "ADK" : { "altitude" : "18",
      "city" : "Adak Island",
      "country" : "United States",
      "dst" : "A",
      "iata" : "ADK",
      "icao" : "PADK",
      "latitude" : "51.878",
      "longitude" : "-176.646",
      "name" : "Adak Airport",
      "timezone" : "-10"
    },
  "ADL" : { "altitude" : "20",
      "city" : "Adelaide",
      "country" : "Australia",
      "dst" : "O",
      "iata" : "ADL",
      "icao" : "YPAD",
      "latitude" : "-34.945",
      "longitude" : "138.530556",
      "name" : "Adelaide Intl",
      "timezone" : "9.5"
    },
  "ADM" : { "altitude" : "762",
      "city" : "Ardmore",
      "country" : "United States",
      "dst" : "A",
      "iata" : "ADM",
      "icao" : "KADM",
      "latitude" : "34.300833",
      "longitude" : "-97.008889",
      "name" : "Ardmore Muni",
      "timezone" : "-6"
    },
  "ADQ" : { "altitude" : "78",
      "city" : "Kodiak",
      "country" : "United States",
      "dst" : "A",
      "iata" : "ADQ",
      "icao" : "PADQ",
      "latitude" : "57.749967",
      "longitude" : "-152.493856",
      "name" : "Kodiak",
      "timezone" : "-9"
    },
  "ADS" : { "altitude" : "644",
      "city" : "Addison",
      "country" : "United States",
      "dst" : "A",
      "iata" : "ADS",
      "icao" : "KADS",
      "latitude" : "32.9685594",
      "longitude" : "-96.8364478",
      "name" : "Addison",
      "timezone" : "-5"
    },
  "ADU" : { "altitude" : "4315",
      "city" : "Ardabil",
      "country" : "Iran",
      "dst" : "E",
      "iata" : "ADU",
      "icao" : "OITL",
      "latitude" : "38.325678",
      "longitude" : "48.424356",
      "name" : "Ardabil Airport",
      "timezone" : "3.5"
    },
  "ADW" : { "altitude" : "280",
      "city" : "Camp Springs",
      "country" : "United States",
      "dst" : "A",
      "iata" : "ADW",
      "icao" : "KADW",
      "latitude" : "38.810806",
      "longitude" : "-76.867028",
      "name" : "Andrews Afb",
      "timezone" : "-5"
    },
  "ADX" : { "altitude" : "38",
      "city" : "Leuchars",
      "country" : "United Kingdom",
      "dst" : "E",
      "iata" : "ADX",
      "icao" : "EGQL",
      "latitude" : "56.372889",
      "longitude" : "-2.868444",
      "name" : "Leuchars",
      "timezone" : "0"
    },
  "ADY" : { "altitude" : "2676",
      "city" : "Alldays",
      "country" : "South Africa",
      "dst" : "U",
      "iata" : "ADY",
      "icao" : "FAAL",
      "latitude" : "-22.678889",
      "longitude" : "29.055278",
      "name" : "Alldays Airport",
      "timezone" : "2"
    },
  "ADZ" : { "altitude" : "19",
      "city" : "San Andres Island",
      "country" : "Colombia",
      "dst" : "U",
      "iata" : "ADZ",
      "icao" : "SKSP",
      "latitude" : "12.583594",
      "longitude" : "-81.711192",
      "name" : "Gustavo Rojas Pinilla",
      "timezone" : "-5"
    },
  "AEA" : { "altitude" : "8",
      "city" : "Abemama",
      "country" : "Kiribati",
      "dst" : "U",
      "iata" : "AEA",
      "icao" : "NGTB",
      "latitude" : "0.490833",
      "longitude" : "173.828611",
      "name" : "Abemama Atoll Airport",
      "timezone" : "12"
    },
  "AEB" : { "altitude" : "485",
      "city" : "Baise",
      "country" : "China",
      "dst" : "N",
      "iata" : "AEB",
      "icao" : "\\N",
      "latitude" : "23.72",
      "longitude" : "106.96",
      "name" : "Tianyang",
      "timezone" : "8"
    },
  "AEH" : { "altitude" : "1788",
      "city" : "Abeche",
      "country" : "Chad",
      "dst" : "N",
      "iata" : "AEH",
      "icao" : "FTTC",
      "latitude" : "13.847",
      "longitude" : "20.844333",
      "name" : "Abeche",
      "timezone" : "1"
    },
  "AEP" : { "altitude" : "18",
      "city" : "Buenos Aires",
      "country" : "Argentina",
      "dst" : "N",
      "iata" : "AEP",
      "icao" : "SABE",
      "latitude" : "-34.559175",
      "longitude" : "-58.415606",
      "name" : "Aeroparque Jorge Newbery",
      "timezone" : "-3"
    },
  "AER" : { "altitude" : "89",
      "city" : "Sochi",
      "country" : "Russia",
      "dst" : "N",
      "iata" : "AER",
      "icao" : "URSS",
      "latitude" : "43.449928",
      "longitude" : "39.956589",
      "name" : "Sochi",
      "timezone" : "4"
    },
  "AES" : { "altitude" : "69",
      "city" : "Alesund",
      "country" : "Norway",
      "dst" : "E",
      "iata" : "AES",
      "icao" : "ENAL",
      "latitude" : "62.560372",
      "longitude" : "6.110164",
      "name" : "Vigra",
      "timezone" : "1"
    },
  "AET" : { "altitude" : "441",
      "city" : "Allakaket",
      "country" : "United States",
      "dst" : "A",
      "iata" : "AET",
      "icao" : "PFAL",
      "latitude" : "66.5519",
      "longitude" : "-152.6222",
      "name" : "Allakaket Airport",
      "timezone" : "-8"
    },
  "AEX" : { "altitude" : "89",
      "city" : "Alexandria",
      "country" : "United States",
      "dst" : "A",
      "iata" : "AEX",
      "icao" : "KAEX",
      "latitude" : "31.3274",
      "longitude" : "-92.549833",
      "name" : "Alexandria Intl",
      "timezone" : "-6"
    },
  "AEY" : { "altitude" : "6",
      "city" : "Akureyri",
      "country" : "Iceland",
      "dst" : "N",
      "iata" : "AEY",
      "icao" : "BIAR",
      "latitude" : "65.659994",
      "longitude" : "-18.072703",
      "name" : "Akureyri",
      "timezone" : "0"
    },
  "AFA" : { "altitude" : "2470",
      "city" : "San Rafael",
      "country" : "Argentina",
      "dst" : "N",
      "iata" : "AFA",
      "icao" : "SAMR",
      "latitude" : "-34.588314",
      "longitude" : "-68.403854",
      "name" : "San Rafael",
      "timezone" : "-3"
    },
  "AFE" : { "altitude" : "172",
      "city" : "Kake",
      "country" : "United States",
      "dst" : "A",
      "iata" : "AFE",
      "icao" : "PAFE",
      "latitude" : "56.961389",
      "longitude" : "-133.910278",
      "name" : "Kake Airport",
      "timezone" : "-9"
    },
  "AFL" : { "altitude" : "947",
      "city" : "Alta Floresta",
      "country" : "Brazil",
      "dst" : "S",
      "iata" : "AFL",
      "icao" : "SBAT",
      "latitude" : "-9.866092",
      "longitude" : "-56.106206",
      "name" : "Alta Floresta",
      "timezone" : "-4"
    },
  "AFS" : { "altitude" : "1396",
      "city" : "Zarafshan",
      "country" : "Uzbekistan",
      "dst" : "U",
      "iata" : "AFS",
      "icao" : "UTSN",
      "latitude" : "41.6139",
      "longitude" : "64.2332",
      "name" : "Sugraly Airport",
      "timezone" : "5"
    },
  "AFT" : { "altitude" : "5",
      "city" : "Afutara",
      "country" : "Solomon Islands",
      "dst" : "U",
      "iata" : "AFT",
      "icao" : "AGAF",
      "latitude" : "-9.183056",
      "longitude" : "160.949722",
      "name" : "Afutara Airport",
      "timezone" : "11"
    },
  "AFW" : { "altitude" : "722",
      "city" : "Fort Worth",
      "country" : "United States",
      "dst" : "A",
      "iata" : "AFW",
      "icao" : "KAFW",
      "latitude" : "32.987778",
      "longitude" : "-97.318889",
      "name" : "Fort Worth Alliance Airport",
      "timezone" : "-6"
    },
  "AFY" : { "altitude" : "3310",
      "city" : "Afyon",
      "country" : "Turkey",
      "dst" : "E",
      "iata" : "AFY",
      "icao" : "LTAH",
      "latitude" : "38.726425",
      "longitude" : "30.601114",
      "name" : "Afyon",
      "timezone" : "2"
    },
  "AFZ" : { "altitude" : "3010",
      "city" : "Sabzevar",
      "country" : "Iran",
      "dst" : "E",
      "iata" : "AFZ",
      "icao" : "OIMS",
      "latitude" : "36.168083",
      "longitude" : "57.595183",
      "name" : "Sabzevar National Airport",
      "timezone" : "3.5"
    },
  "AGA" : { "altitude" : "89",
      "city" : "Agadir",
      "country" : "Morocco",
      "dst" : "N",
      "iata" : "AGA",
      "icao" : "GMAA",
      "latitude" : "30.381353",
      "longitude" : "-9.546311",
      "name" : "Inezgane",
      "timezone" : "0"
    },
  "AGB" : { "altitude" : "1515",
      "city" : "Augsburg",
      "country" : "Germany",
      "dst" : "E",
      "iata" : "AGB",
      "icao" : "EDMA",
      "latitude" : "48.425158",
      "longitude" : "10.931764",
      "name" : "Augsburg",
      "timezone" : "1"
    },
  "AGC" : { "altitude" : "1252",
      "city" : "Pittsburgh",
      "country" : "United States",
      "dst" : "A",
      "iata" : "AGC",
      "icao" : "KAGC",
      "latitude" : "40.3544",
      "longitude" : "-79.9302",
      "name" : "Allegheny County Airport",
      "timezone" : "-5"
    },
  "AGE" : { "altitude" : "7",
      "city" : "Wangerooge",
      "country" : "Germany",
      "dst" : "E",
      "iata" : "AGE",
      "icao" : "EDWG",
      "latitude" : "53.7828",
      "longitude" : "7.91389",
      "name" : "Wangerooge Airport",
      "timezone" : "1"
    },
  "AGF" : { "altitude" : "204",
      "city" : "Agen",
      "country" : "France",
      "dst" : "E",
      "iata" : "AGF",
      "icao" : "LFBA",
      "latitude" : "44.174721",
      "longitude" : "0.590556",
      "name" : "La Garenne",
      "timezone" : "1"
    },
  "AGH" : { "altitude" : "68",
      "city" : "Ängelholm",
      "country" : "Sweden",
      "dst" : "E",
      "iata" : "AGH",
      "icao" : "ESTA",
      "latitude" : "56.2961",
      "longitude" : "12.8471",
      "name" : "Ängelholm-Helsingborg Airport",
      "timezone" : "1"
    },
  "AGI" : { "altitude" : "10",
      "city" : "Wageningen",
      "country" : "Suriname",
      "dst" : "U",
      "iata" : "AGI",
      "icao" : "SMWA",
      "latitude" : "5.76667",
      "longitude" : "-56.63333",
      "name" : "Wageningen Airstrip",
      "timezone" : "-3"
    },
  "AGJ" : { "altitude" : "38",
      "city" : "Aguni",
      "country" : "Japan",
      "dst" : "U",
      "iata" : "AGJ",
      "icao" : "RORA",
      "latitude" : "26.592778",
      "longitude" : "127.240278",
      "name" : "Aguni Airport",
      "timezone" : "9"
    },
  "AGL" : { "altitude" : "0",
      "city" : "Wanigela",
      "country" : "Papua New Guinea",
      "dst" : "U",
      "iata" : "AGL",
      "icao" : "\\N",
      "latitude" : "-9.333",
      "longitude" : "149.15",
      "name" : "Wanigela Airport",
      "timezone" : "10"
    },
  "AGM" : { "altitude" : "24",
      "city" : "Angmagssalik",
      "country" : "Greenland",
      "dst" : "U",
      "iata" : "AGM",
      "icao" : "BGAM",
      "latitude" : "65.612222",
      "longitude" : "-37.618333",
      "name" : "Tasiilaq",
      "timezone" : "-2"
    },
  "AGN" : { "altitude" : "0",
      "city" : "Angoon",
      "country" : "United States",
      "dst" : "A",
      "iata" : "AGN",
      "icao" : "PAGN",
      "latitude" : "57.503611",
      "longitude" : "-134.585",
      "name" : "Angoon Seaplane Base",
      "timezone" : "-9"
    },
  "AGP" : { "altitude" : "52",
      "city" : "Malaga",
      "country" : "Spain",
      "dst" : "E",
      "iata" : "AGP",
      "icao" : "LEMG",
      "latitude" : "36.6749",
      "longitude" : "-4.499106",
      "name" : "Malaga",
      "timezone" : "1"
    },
  "AGQ" : { "altitude" : "154",
      "city" : "Agrinion",
      "country" : "Greece",
      "dst" : "E",
      "iata" : "AGQ",
      "icao" : "LGAG",
      "latitude" : "38.602022",
      "longitude" : "21.351208",
      "name" : "Agrinion",
      "timezone" : "2"
    },
  "AGR" : { "altitude" : "551",
      "city" : "Agra",
      "country" : "India",
      "dst" : "N",
      "iata" : "AGR",
      "icao" : "VIAG",
      "latitude" : "27.155831",
      "longitude" : "77.960892",
      "name" : "Agra",
      "timezone" : "5.5"
    },
  "AGS" : { "altitude" : "144",
      "city" : "Bush Field",
      "country" : "United States",
      "dst" : "A",
      "iata" : "AGS",
      "icao" : "KAGS",
      "latitude" : "33.369944",
      "longitude" : "-81.9645",
      "name" : "Augusta Rgnl At Bush Fld",
      "timezone" : "-5"
    },
  "AGT" : { "altitude" : "846",
      "city" : "Ciudad del Este",
      "country" : "Paraguay",
      "dst" : "S",
      "iata" : "AGT",
      "icao" : "SGES",
      "latitude" : "-25.4555",
      "longitude" : "-54.843592",
      "name" : "Ciudad del Este",
      "timezone" : "-4"
    },
  "AGU" : { "altitude" : "6112",
      "city" : "Aguascalientes",
      "country" : "Mexico",
      "dst" : "S",
      "iata" : "AGU",
      "icao" : "MMAS",
      "latitude" : "21.705558",
      "longitude" : "-102.317858",
      "name" : "Jesus Teran Intl",
      "timezone" : "-6"
    },
  "AGV" : { "altitude" : "741",
      "city" : "Acarigua",
      "country" : "Venezuela",
      "dst" : "U",
      "iata" : "AGV",
      "icao" : "SVAC",
      "latitude" : "9.553422",
      "longitude" : "-69.237536",
      "name" : "Oswaldo Guevara Mujica",
      "timezone" : "-4"
    },
  "AGX" : { "altitude" : "14",
      "city" : "Agatti Island",
      "country" : "India",
      "dst" : "N",
      "iata" : "AGX",
      "icao" : "VOAT",
      "latitude" : "10.823656",
      "longitude" : "72.176042",
      "name" : "Agatti",
      "timezone" : "5.5"
    },
  "AGZ" : { "altitude" : "2648",
      "city" : "Aggeneys",
      "country" : "South Africa",
      "dst" : "U",
      "iata" : "AGZ",
      "icao" : "FAAG",
      "latitude" : "-29.281767",
      "longitude" : "18.813869",
      "name" : "Aggeneys",
      "timezone" : "2"
    },
  "AHB" : { "altitude" : "6858",
      "city" : "Abha",
      "country" : "Saudi Arabia",
      "dst" : "U",
      "iata" : "AHB",
      "icao" : "OEAB",
      "latitude" : "18.240367",
      "longitude" : "42.656625",
      "name" : "Abha",
      "timezone" : "3"
    },
  "AHE" : { "altitude" : "11",
      "city" : "Ahe",
      "country" : "French Polynesia",
      "dst" : "U",
      "iata" : "AHE",
      "icao" : "NTHE",
      "latitude" : "-14.4281",
      "longitude" : "-146.257",
      "name" : "Ahe Airport",
      "timezone" : "-10"
    },
  "AHN" : { "altitude" : "808",
      "city" : "Athens",
      "country" : "United States",
      "dst" : "A",
      "iata" : "AHN",
      "icao" : "KAHN",
      "latitude" : "33.9486",
      "longitude" : "-83.3263",
      "name" : "Athens Ben Epps Airport",
      "timezone" : "-5"
    },
  "AHO" : { "altitude" : "87",
      "city" : "Alghero",
      "country" : "Italy",
      "dst" : "E",
      "iata" : "AHO",
      "icao" : "LIEA",
      "latitude" : "40.632133",
      "longitude" : "8.290772",
      "name" : "Alghero",
      "timezone" : "1"
    },
  "AHS" : { "altitude" : "98",
      "city" : "Ahuas",
      "country" : "Honduras",
      "dst" : "U",
      "iata" : "AHS",
      "icao" : "MHAH",
      "latitude" : "15.4722",
      "longitude" : "-84.3522",
      "name" : "Ahuas Airport",
      "timezone" : "-6"
    },
  "AHU" : { "altitude" : "95",
      "city" : "Al Hociema",
      "country" : "Morocco",
      "dst" : "N",
      "iata" : "AHU",
      "icao" : "GMTA",
      "latitude" : "35.177103",
      "longitude" : "-3.839525",
      "name" : "Cherif El Idrissi",
      "timezone" : "0"
    },
  "AIA" : { "altitude" : "3931",
      "city" : "Alliance",
      "country" : "United States",
      "dst" : "A",
      "iata" : "AIA",
      "icao" : "KAIA",
      "latitude" : "42.053333",
      "longitude" : "-102.803889",
      "name" : "Alliance Municipal Airport",
      "timezone" : "-7"
    },
  "AIC" : { "altitude" : "10",
      "city" : "Airok",
      "country" : "Marshall Islands",
      "dst" : "U",
      "iata" : "AIC",
      "icao" : "\\N",
      "latitude" : "7.1",
      "longitude" : "171.233333",
      "name" : "Airok Airport",
      "timezone" : "12"
    },
  "AIE" : { "altitude" : "350",
      "city" : "Aiome",
      "country" : "Papua New Guinea",
      "dst" : "U",
      "iata" : "AIE",
      "icao" : "\\N",
      "latitude" : "-5.8",
      "longitude" : "144.44",
      "name" : "Aiome",
      "timezone" : "-10"
    },
  "AIK" : { "altitude" : "529",
      "city" : "Aiken",
      "country" : "United States",
      "dst" : "A",
      "iata" : "AIK",
      "icao" : "KAIK",
      "latitude" : "33.6493889",
      "longitude" : "-81.6850278",
      "name" : "Municipal Airport",
      "timezone" : "-5"
    },
  "AIM" : { "altitude" : "0",
      "city" : "Ailuk Island",
      "country" : "Marshall Islands",
      "dst" : "U",
      "iata" : "AIM",
      "icao" : "",
      "latitude" : "10.2168",
      "longitude" : "169.983",
      "name" : "Ailuk Airport",
      "timezone" : "12"
    },
  "AIN" : { "altitude" : "41",
      "city" : "Wainwright",
      "country" : "United States",
      "dst" : "A",
      "iata" : "AIN",
      "icao" : "PAWI",
      "latitude" : "70.638056",
      "longitude" : "-159.994722",
      "name" : "Wainwright Airport",
      "timezone" : "-9"
    },
  "AIS" : { "altitude" : "6",
      "city" : "Arorae",
      "country" : "Kiribati",
      "dst" : "U",
      "iata" : "AIS",
      "icao" : "NGTR",
      "latitude" : "-2.633333",
      "longitude" : "179.816667",
      "name" : "Arorae Island Airport",
      "timezone" : "10"
    },
  "AIT" : { "altitude" : "14",
      "city" : "Aitutaki",
      "country" : "Cook Islands",
      "dst" : "U",
      "iata" : "AIT",
      "icao" : "NCAI",
      "latitude" : "-18.830922",
      "longitude" : "-159.764233",
      "name" : "Aitutaki",
      "timezone" : "-10"
    },
  "AIU" : { "altitude" : "36",
      "city" : "Atiu Island",
      "country" : "Cook Islands",
      "dst" : "U",
      "iata" : "AIU",
      "icao" : "NCAT",
      "latitude" : "-19.9678",
      "longitude" : "-158.119",
      "name" : "Atiu Island Airport",
      "timezone" : "-10"
    },
  "AIZ" : { "altitude" : "869",
      "city" : "Kaiser Lake Ozark",
      "country" : "United States",
      "dst" : "A",
      "iata" : "AIZ",
      "icao" : "KAIZ",
      "latitude" : "38.096035",
      "longitude" : "-92.5494875",
      "name" : "Lee C Fine Memorial Airport",
      "timezone" : "-5"
    },
  "AJA" : { "altitude" : "18",
      "city" : "Ajaccio",
      "country" : "France",
      "dst" : "E",
      "iata" : "AJA",
      "icao" : "LFKJ",
      "latitude" : "41.923637",
      "longitude" : "8.802917",
      "name" : "Campo Dell Oro",
      "timezone" : "1"
    },
  "AJF" : { "altitude" : "2261",
      "city" : "Al-Jawf",
      "country" : "Saudi Arabia",
      "dst" : "U",
      "iata" : "AJF",
      "icao" : "OESK",
      "latitude" : "29.785133",
      "longitude" : "40.100006",
      "name" : "Al-Jawf Domestic Airport",
      "timezone" : "3"
    },
  "AJI" : { "altitude" : "5462",
      "city" : "Agri",
      "country" : "Turkey",
      "dst" : "E",
      "iata" : "AJI",
      "icao" : "LTCO",
      "latitude" : "39.6546",
      "longitude" : "43.0271",
      "name" : "Agri Airport",
      "timezone" : "2"
    },
  "AJL" : { "altitude" : "1001",
      "city" : "Aizwal",
      "country" : "India",
      "dst" : "N",
      "iata" : "AJL",
      "icao" : "VEAZ",
      "latitude" : "23.746603",
      "longitude" : "92.802767",
      "name" : "Aizawl",
      "timezone" : "5.5"
    },
  "AJN" : { "altitude" : "62",
      "city" : "Anjouan",
      "country" : "Comoros",
      "dst" : "U",
      "iata" : "AJN",
      "icao" : "FMCV",
      "latitude" : "-12.131667",
      "longitude" : "44.430279",
      "name" : "Ouani",
      "timezone" : "3"
    },
  "AJR" : { "altitude" : "1245",
      "city" : "Arvidsjaur",
      "country" : "Sweden",
      "dst" : "E",
      "iata" : "AJR",
      "icao" : "ESNX",
      "latitude" : "65.590278",
      "longitude" : "19.281944",
      "name" : "Arvidsjaur",
      "timezone" : "1"
    },
  "AJU" : { "altitude" : "23",
      "city" : "Aracaju",
      "country" : "Brazil",
      "dst" : "S",
      "iata" : "AJU",
      "icao" : "SBAR",
      "latitude" : "-10.984",
      "longitude" : "-37.070333",
      "name" : "Santa Maria",
      "timezone" : "-3"
    },
  "AJY" : { "altitude" : "1657",
      "city" : "Agadez",
      "country" : "Niger",
      "dst" : "N",
      "iata" : "AJY",
      "icao" : "DRZA",
      "latitude" : "16.965997",
      "longitude" : "8.000114",
      "name" : "Manu Dayak",
      "timezone" : "1"
    },
  "AKA" : { "altitude" : "0",
      "city" : "Ankang",
      "country" : "China",
      "dst" : "U",
      "iata" : "AKA",
      "icao" : "ZLAK",
      "latitude" : "32.7081",
      "longitude" : "108.931",
      "name" : "Ankang Airport",
      "timezone" : "8"
    },
  "AKB" : { "altitude" : "56",
      "city" : "Atka",
      "country" : "United States",
      "dst" : "A",
      "iata" : "AKB",
      "icao" : "PAAK",
      "latitude" : "52.220278",
      "longitude" : "-174.206389",
      "name" : "Atka Airport",
      "timezone" : "-9"
    },
  "AKC" : { "altitude" : "1067",
      "city" : "Akron",
      "country" : "United States",
      "dst" : "A",
      "iata" : "AKC",
      "icao" : "KAKR",
      "latitude" : "41.0375",
      "longitude" : "-81.466917",
      "name" : "Akron Fulton Intl",
      "timezone" : "-5"
    },
  "AKD" : { "altitude" : "999",
      "city" : "Akola",
      "country" : "India",
      "dst" : "N",
      "iata" : "AKD",
      "icao" : "VAAK",
      "latitude" : "20.699006",
      "longitude" : "77.058628",
      "name" : "Akola",
      "timezone" : "5.5"
    },
  "AKF" : { "altitude" : "1367",
      "city" : "Kufra",
      "country" : "Libya",
      "dst" : "N",
      "iata" : "AKF",
      "icao" : "HLKF",
      "latitude" : "24.178728",
      "longitude" : "23.313958",
      "name" : "Kufra",
      "timezone" : "1"
    },
  "AKI" : { "altitude" : "30",
      "city" : "Akiak",
      "country" : "United States",
      "dst" : "A",
      "iata" : "AKI",
      "icao" : "PFAK",
      "latitude" : "60.902778",
      "longitude" : "-161.230556",
      "name" : "Akiak Airport",
      "timezone" : "-9"
    },
  "AKJ" : { "altitude" : "721",
      "city" : "Asahikawa",
      "country" : "Japan",
      "dst" : "U",
      "iata" : "AKJ",
      "icao" : "RJEC",
      "latitude" : "43.670833",
      "longitude" : "142.4475",
      "name" : "Asahikawa",
      "timezone" : "9"
    },
  "AKK" : { "altitude" : "44",
      "city" : "Akhiok",
      "country" : "United States",
      "dst" : "A",
      "iata" : "AKK",
      "icao" : "PAKH",
      "latitude" : "56.938611",
      "longitude" : "-154.1825",
      "name" : "Akhiok Airport",
      "timezone" : "-9"
    },
  "AKL" : { "altitude" : "23",
      "city" : "Auckland",
      "country" : "New Zealand",
      "dst" : "Z",
      "iata" : "AKL",
      "icao" : "NZAA",
      "latitude" : "-37.008056",
      "longitude" : "174.791667",
      "name" : "Auckland Intl",
      "timezone" : "12"
    },
  "AKN" : { "altitude" : "68",
      "city" : "King Salmon",
      "country" : "United States",
      "dst" : "A",
      "iata" : "AKN",
      "icao" : "PAKN",
      "latitude" : "58.676778",
      "longitude" : "-156.649278",
      "name" : "King Salmon",
      "timezone" : "-9"
    },
  "AKP" : { "altitude" : "2103",
      "city" : "Anaktuvuk Pass",
      "country" : "United States",
      "dst" : "A",
      "iata" : "AKP",
      "icao" : "PAKP",
      "latitude" : "68.1336",
      "longitude" : "-151.743",
      "name" : "Anaktuvuk Pass Airport",
      "timezone" : "-9"
    },
  "AKR" : { "altitude" : "1100",
      "city" : "Akure",
      "country" : "Nigeria",
      "dst" : "N",
      "iata" : "AKR",
      "icao" : "DNAK",
      "latitude" : "7.246739",
      "longitude" : "5.301008",
      "name" : "Akure",
      "timezone" : "1"
    },
  "AKS" : { "altitude" : "5",
      "city" : "Auki",
      "country" : "Solomon Islands",
      "dst" : "U",
      "iata" : "AKS",
      "icao" : "AGGA",
      "latitude" : "-8.70257",
      "longitude" : "160.682",
      "name" : "Auki Airport",
      "timezone" : "11"
    },
  "AKT" : { "altitude" : "76",
      "city" : "Akrotiri",
      "country" : "Cyprus",
      "dst" : "E",
      "iata" : "AKT",
      "icao" : "LCRA",
      "latitude" : "34.590416",
      "longitude" : "32.987861",
      "name" : "Akrotiri",
      "timezone" : "2"
    },
  "AKU" : { "altitude" : "0",
      "city" : "Aksu",
      "country" : "China",
      "dst" : "U",
      "iata" : "AKU",
      "icao" : "ZWAK",
      "latitude" : "41.2625",
      "longitude" : "80.2917",
      "name" : "Aksu Airport",
      "timezone" : "8"
    },
  "AKV" : { "altitude" : "75",
      "city" : "Akulivik",
      "country" : "Canada",
      "dst" : "A",
      "iata" : "AKV",
      "icao" : "CYKO",
      "latitude" : "60.8186",
      "longitude" : "-78.1486",
      "name" : "Akulivik Airport",
      "timezone" : "-5"
    },
  "AKX" : { "altitude" : "738",
      "city" : "Aktyubinsk",
      "country" : "Kazakhstan",
      "dst" : "U",
      "iata" : "AKX",
      "icao" : "UATT",
      "latitude" : "50.245833",
      "longitude" : "57.206667",
      "name" : "Aktyubinsk",
      "timezone" : "5"
    },
  "AKY" : { "altitude" : "27",
      "city" : "Sittwe",
      "country" : "Burma",
      "dst" : "U",
      "iata" : "AKY",
      "icao" : "VYSW",
      "latitude" : "20.132708",
      "longitude" : "92.872628",
      "name" : "Sittwe",
      "timezone" : "6.5"
    },
  "ALA" : { "altitude" : "2234",
      "city" : "Alma-ata",
      "country" : "Kazakhstan",
      "dst" : "U",
      "iata" : "ALA",
      "icao" : "UAAA",
      "latitude" : "43.352072",
      "longitude" : "77.040508",
      "name" : "Almaty",
      "timezone" : "6"
    },
  "ALB" : { "altitude" : "285",
      "city" : "Albany",
      "country" : "United States",
      "dst" : "A",
      "iata" : "ALB",
      "icao" : "KALB",
      "latitude" : "42.748267",
      "longitude" : "-73.801692",
      "name" : "Albany Intl",
      "timezone" : "-5"
    },
  "ALC" : { "altitude" : "142",
      "city" : "Alicante",
      "country" : "Spain",
      "dst" : "E",
      "iata" : "ALC",
      "icao" : "LEAL",
      "latitude" : "38.282169",
      "longitude" : "-0.558156",
      "name" : "Alicante",
      "timezone" : "1"
    },
  "ALF" : { "altitude" : "9",
      "city" : "Alta",
      "country" : "Norway",
      "dst" : "E",
      "iata" : "ALF",
      "icao" : "ENAT",
      "latitude" : "69.976111",
      "longitude" : "23.371667",
      "name" : "Alta",
      "timezone" : "1"
    },
  "ALG" : { "altitude" : "82",
      "city" : "Algier",
      "country" : "Algeria",
      "dst" : "N",
      "iata" : "ALG",
      "icao" : "DAAG",
      "latitude" : "36.691014",
      "longitude" : "3.215408",
      "name" : "Houari Boumediene",
      "timezone" : "1"
    },
  "ALH" : { "altitude" : "233",
      "city" : "Albany",
      "country" : "Australia",
      "dst" : "O",
      "iata" : "ALH",
      "icao" : "YABA",
      "latitude" : "-34.9433",
      "longitude" : "117.809",
      "name" : "Albany Airport",
      "timezone" : "8"
    },
  "ALI" : { "altitude" : "178",
      "city" : "Alice",
      "country" : "United States",
      "dst" : "A",
      "iata" : "ALI",
      "icao" : "KALI",
      "latitude" : "27.740889",
      "longitude" : "-98.026944",
      "name" : "Alice Intl",
      "timezone" : "-6"
    },
  "ALJ" : { "altitude" : "98",
      "city" : "Alexander Bay",
      "country" : "South Africa",
      "dst" : "U",
      "iata" : "ALJ",
      "icao" : "FAAB",
      "latitude" : "-28.575001",
      "longitude" : "16.533333",
      "name" : "Alexander Bay",
      "timezone" : "2"
    },
  "ALL" : { "altitude" : "148",
      "city" : "Albenga",
      "country" : "Italy",
      "dst" : "E",
      "iata" : "ALL",
      "icao" : "LIMG",
      "latitude" : "44.050608",
      "longitude" : "8.127428",
      "name" : "Albenga",
      "timezone" : "1"
    },
  "ALM" : { "altitude" : "4200",
      "city" : "Alamogordo",
      "country" : "United States",
      "dst" : "A",
      "iata" : "ALM",
      "icao" : "KALM",
      "latitude" : "32.8399",
      "longitude" : "-105.991",
      "name" : "Alamogordo White Sands Regional Airport",
      "timezone" : "-7"
    },
  "ALO" : { "altitude" : "873",
      "city" : "Waterloo",
      "country" : "United States",
      "dst" : "A",
      "iata" : "ALO",
      "icao" : "KALO",
      "latitude" : "42.5571",
      "longitude" : "-92.4003",
      "name" : "Waterloo Regional Airport",
      "timezone" : "-6"
    },
  "ALP" : { "altitude" : "1276",
      "city" : "Aleppo",
      "country" : "Syria",
      "dst" : "E",
      "iata" : "ALP",
      "icao" : "OSAP",
      "latitude" : "36.180675",
      "longitude" : "37.224358",
      "name" : "Aleppo Intl",
      "timezone" : "2"
    },
  "ALR" : { "altitude" : "752",
      "city" : "Alexandra",
      "country" : "New Zealand",
      "dst" : "Z",
      "iata" : "ALR",
      "icao" : "NZLX",
      "latitude" : "-45.211666",
      "longitude" : "169.373333",
      "name" : "Alexandra",
      "timezone" : "12"
    },
  "ALS" : { "altitude" : "7539",
      "city" : "Alamosa",
      "country" : "United States",
      "dst" : "A",
      "iata" : "ALS",
      "icao" : "KALS",
      "latitude" : "37.435",
      "longitude" : "-105.866667",
      "name" : "San Luis Valley Regional Airport",
      "timezone" : "-7"
    },
  "ALU" : { "altitude" : "6",
      "city" : "Alula",
      "country" : "Somalia",
      "dst" : "U",
      "iata" : "ALU",
      "icao" : "HCMA",
      "latitude" : "11.95",
      "longitude" : "50.733",
      "name" : "Alula Airport",
      "timezone" : "3"
    },
  "ALW" : { "altitude" : "1191",
      "city" : "Walla Walla",
      "country" : "United States",
      "dst" : "A",
      "iata" : "ALW",
      "icao" : "KALW",
      "latitude" : "46.0949",
      "longitude" : "-118.288",
      "name" : "Walla Walla Regional Airport",
      "timezone" : "-8"
    },
  "ALX" : { "altitude" : "1",
      "city" : "Alexandria",
      "country" : "United States",
      "dst" : "A",
      "iata" : "ALX",
      "icao" : "ALX_",
      "latitude" : "38.806346",
      "longitude" : "-77.0621",
      "name" : "Alexandria",
      "timezone" : "-5"
    },
  "ALY" : { "altitude" : "-6",
      "city" : "Alexandria",
      "country" : "Egypt",
      "dst" : "U",
      "iata" : "ALY",
      "icao" : "HEAX",
      "latitude" : "31.183903",
      "longitude" : "29.948889",
      "name" : "Alexandria Intl",
      "timezone" : "2"
    },
  "ALZ" : { "altitude" : "0",
      "city" : "Lazy Bay",
      "country" : "United States",
      "dst" : "A",
      "iata" : "ALZ",
      "icao" : "\\N",
      "latitude" : "56.899444",
      "longitude" : "-154.247778",
      "name" : "Alitak Seaplane Base",
      "timezone" : "-9"
    },
  "AMA" : { "altitude" : "3607",
      "city" : "Amarillo",
      "country" : "United States",
      "dst" : "A",
      "iata" : "AMA",
      "icao" : "KAMA",
      "latitude" : "35.219369",
      "longitude" : "-101.705931",
      "name" : "Rick Husband Amarillo Intl",
      "timezone" : "-6"
    },
  "AMB" : { "altitude" : "72",
      "city" : "Ambilobe",
      "country" : "Madagascar",
      "dst" : "U",
      "iata" : "AMB",
      "icao" : "FMNE",
      "latitude" : "-13.188431",
      "longitude" : "48.987978",
      "name" : "Ambilobe",
      "timezone" : "3"
    },
  "AMC" : { "altitude" : "1421",
      "city" : "Am Timan",
      "country" : "Chad",
      "dst" : "U",
      "iata" : "AMC",
      "icao" : "FTTN",
      "latitude" : "11.034",
      "longitude" : "20.274",
      "name" : "Am Timan Airport",
      "timezone" : "1"
    },
  "AMD" : { "altitude" : "189",
      "city" : "Ahmedabad",
      "country" : "India",
      "dst" : "N",
      "iata" : "AMD",
      "icao" : "VAAH",
      "latitude" : "23.077242",
      "longitude" : "72.63465",
      "name" : "Ahmedabad",
      "timezone" : "5.5"
    },
  "AMH" : { "altitude" : "3895",
      "city" : "Arba Minch",
      "country" : "Ethiopia",
      "dst" : "U",
      "iata" : "AMH",
      "icao" : "HAAM",
      "latitude" : "6.039389",
      "longitude" : "37.590453",
      "name" : "Arba Minch",
      "timezone" : "3"
    },
  "AMI" : { "altitude" : "52",
      "city" : "Mataram",
      "country" : "Indonesia",
      "dst" : "N",
      "iata" : "AMI",
      "icao" : "WADA",
      "latitude" : "-8.560708",
      "longitude" : "116.094656",
      "name" : "Selaparang",
      "timezone" : "8"
    },
  "AMM" : { "altitude" : "2395",
      "city" : "Amman",
      "country" : "Jordan",
      "dst" : "E",
      "iata" : "AMM",
      "icao" : "OJAI",
      "latitude" : "31.722556",
      "longitude" : "35.993214",
      "name" : "Queen Alia Intl",
      "timezone" : "2"
    },
  "AMQ" : { "altitude" : "33",
      "city" : "Ambon",
      "country" : "Indonesia",
      "dst" : "N",
      "iata" : "AMQ",
      "icao" : "WAPP",
      "latitude" : "-3.710264",
      "longitude" : "128.089136",
      "name" : "Pattimura",
      "timezone" : "9"
    },
  "AMS" : { "altitude" : "-11",
      "city" : "Amsterdam",
      "country" : "Netherlands",
      "dst" : "E",
      "iata" : "AMS",
      "icao" : "EHAM",
      "latitude" : "52.308613",
      "longitude" : "4.763889",
      "name" : "Schiphol",
      "timezone" : "1"
    },
  "AMV" : { "altitude" : "13",
      "city" : "Amderma",
      "country" : "Russia",
      "dst" : "N",
      "iata" : "AMV",
      "icao" : "ULDD",
      "latitude" : "69.7633",
      "longitude" : "61.5564",
      "name" : "Amderma Airport",
      "timezone" : "4"
    },
  "AMY" : { "altitude" : "500",
      "city" : "Ambatomainty",
      "country" : "Madagascar",
      "dst" : "U",
      "iata" : "AMY",
      "icao" : "\\N",
      "latitude" : "-17.1667",
      "longitude" : "47.1833",
      "name" : "Ambatomainty Airport",
      "timezone" : "3"
    },
  "AMZ" : { "altitude" : "111",
      "city" : "Ardmore",
      "country" : "New Zealand",
      "dst" : "Z",
      "iata" : "AMZ",
      "icao" : "NZAR",
      "latitude" : "-37.029722",
      "longitude" : "174.973333",
      "name" : "Ardmore",
      "timezone" : "12"
    },
  "ANB" : { "altitude" : "612",
      "city" : "Anniston",
      "country" : "United States",
      "dst" : "A",
      "iata" : "ANB",
      "icao" : "KANB",
      "latitude" : "33.588167",
      "longitude" : "-85.858111",
      "name" : "Anniston Metro",
      "timezone" : "-6"
    },
  "ANC" : { "altitude" : "152",
      "city" : "Anchorage",
      "country" : "United States",
      "dst" : "A",
      "iata" : "ANC",
      "icao" : "PANC",
      "latitude" : "61.174361",
      "longitude" : "-149.996361",
      "name" : "Ted Stevens Anchorage Intl",
      "timezone" : "-9"
    },
  "AND" : { "altitude" : "782",
      "city" : "Andersen",
      "country" : "United States",
      "dst" : "A",
      "iata" : "AND",
      "icao" : "KAND",
      "latitude" : "34.494583",
      "longitude" : "-82.709389",
      "name" : "Anderson Rgnl",
      "timezone" : "-5"
    },
  "ANE" : { "altitude" : "194",
      "city" : "Angers/Marcé",
      "country" : "France",
      "dst" : "E",
      "iata" : "ANE",
      "icao" : "LFJR",
      "latitude" : "47.5603",
      "longitude" : "-0.312222",
      "name" : "Angers-Loire Airport",
      "timezone" : "1"
    },
  "ANF" : { "altitude" : "455",
      "city" : "Antofagasta",
      "country" : "Chile",
      "dst" : "S",
      "iata" : "ANF",
      "icao" : "SCFA",
      "latitude" : "-23.444478",
      "longitude" : "-70.4451",
      "name" : "Cerro Moreno Intl",
      "timezone" : "-4"
    },
  "ANG" : { "altitude" : "436",
      "city" : "Angouleme",
      "country" : "France",
      "dst" : "E",
      "iata" : "ANG",
      "icao" : "LFBU",
      "latitude" : "45.729247",
      "longitude" : "0.221456",
      "name" : "Brie Champniers",
      "timezone" : "1"
    },
  "ANI" : { "altitude" : "88",
      "city" : "Aniak",
      "country" : "United States",
      "dst" : "A",
      "iata" : "ANI",
      "icao" : "PANI",
      "latitude" : "61.5816",
      "longitude" : "-159.543",
      "name" : "Aniak Airport",
      "timezone" : "-9"
    },
  "ANK" : { "altitude" : "2653",
      "city" : "Ankara",
      "country" : "Turkey",
      "dst" : "E",
      "iata" : "ANK",
      "icao" : "LTAD",
      "latitude" : "39.949831",
      "longitude" : "32.688622",
      "name" : "Etimesgut",
      "timezone" : "2"
    },
  "ANM" : { "altitude" : "20",
      "city" : "Antalaha",
      "country" : "Madagascar",
      "dst" : "U",
      "iata" : "ANM",
      "icao" : "FMNH",
      "latitude" : "-14.999411",
      "longitude" : "50.320233",
      "name" : "Antsirabato",
      "timezone" : "3"
    },
  "ANN" : { "altitude" : "119",
      "city" : "Annette Island",
      "country" : "United States",
      "dst" : "A",
      "iata" : "ANN",
      "icao" : "PANT",
      "latitude" : "55.042436",
      "longitude" : "-131.572233",
      "name" : "Annette Island",
      "timezone" : "-9"
    },
  "ANP" : { "altitude" : "34",
      "city" : "Annapolis",
      "country" : "United States",
      "dst" : "A",
      "iata" : "ANP",
      "icao" : "KANP",
      "latitude" : "38.942778",
      "longitude" : "-76.568333",
      "name" : "Lee Airport",
      "timezone" : "-5"
    },
  "ANQ" : { "altitude" : "995",
      "city" : "Angola",
      "country" : "United States",
      "dst" : "A",
      "iata" : "ANQ",
      "icao" : "KANQ",
      "latitude" : "41.6396983",
      "longitude" : "-85.0834933",
      "name" : "Tri-State Steuben County Airport",
      "timezone" : "-5"
    },
  "ANR" : { "altitude" : "39",
      "city" : "Antwerp",
      "country" : "Belgium",
      "dst" : "E",
      "iata" : "ANR",
      "icao" : "EBAW",
      "latitude" : "51.189444",
      "longitude" : "4.460278",
      "name" : "Deurne",
      "timezone" : "1"
    },
  "ANS" : { "altitude" : "11300",
      "city" : "Andahuaylas",
      "country" : "Peru",
      "dst" : "U",
      "iata" : "ANS",
      "icao" : "SPHY",
      "latitude" : "-13.706408",
      "longitude" : "-73.350378",
      "name" : "Andahuaylas",
      "timezone" : "-5"
    },
  "ANU" : { "altitude" : "62",
      "city" : "Antigua",
      "country" : "Antigua and Barbuda",
      "dst" : "U",
      "iata" : "ANU",
      "icao" : "TAPA",
      "latitude" : "17.136749",
      "longitude" : "-61.792667",
      "name" : "V C Bird Intl",
      "timezone" : "-4"
    },
  "ANV" : { "altitude" : "309",
      "city" : "Anvik",
      "country" : "United States",
      "dst" : "A",
      "iata" : "ANV",
      "icao" : "PANV",
      "latitude" : "62.6467",
      "longitude" : "-160.191",
      "name" : "Anvik Airport",
      "timezone" : "-9"
    },
  "ANX" : { "altitude" : "43",
      "city" : "Andoya",
      "country" : "Norway",
      "dst" : "E",
      "iata" : "ANX",
      "icao" : "ENAN",
      "latitude" : "69.2925",
      "longitude" : "16.144167",
      "name" : "Andenes",
      "timezone" : "1"
    },
  "AOC" : { "altitude" : "640",
      "city" : "Altenburg",
      "country" : "Germany",
      "dst" : "E",
      "iata" : "AOC",
      "icao" : "EDAC",
      "latitude" : "50.981817",
      "longitude" : "12.506361",
      "name" : "Altenburg Nobitz",
      "timezone" : "1"
    },
  "AOE" : { "altitude" : "2588",
      "city" : "Eskissehir",
      "country" : "Turkey",
      "dst" : "E",
      "iata" : "AOE",
      "icao" : "LTBY",
      "latitude" : "39.809858",
      "longitude" : "30.519378",
      "name" : "Anadolu Airport",
      "timezone" : "2"
    },
  "AOH" : { "altitude" : "975",
      "city" : "Lima",
      "country" : "United States",
      "dst" : "A",
      "iata" : "AOH",
      "icao" : "KAOH",
      "latitude" : "40.707478",
      "longitude" : "-84.0270781",
      "name" : "Lima Allen County Airport",
      "timezone" : "-5"
    },
  "AOI" : { "altitude" : "10",
      "city" : "Ancona",
      "country" : "Italy",
      "dst" : "E",
      "iata" : "AOI",
      "icao" : "LIPY",
      "latitude" : "43.616389",
      "longitude" : "13.362222",
      "name" : "Falconara",
      "timezone" : "1"
    },
  "AOJ" : { "altitude" : "664",
      "city" : "Aomori",
      "country" : "Japan",
      "dst" : "U",
      "iata" : "AOJ",
      "icao" : "RJSA",
      "latitude" : "40.734722",
      "longitude" : "140.690833",
      "name" : "Aomori",
      "timezone" : "9"
    },
  "AOK" : { "altitude" : "66",
      "city" : "Karpathos",
      "country" : "Greece",
      "dst" : "E",
      "iata" : "AOK",
      "icao" : "LGKP",
      "latitude" : "35.421408",
      "longitude" : "27.146008",
      "name" : "Karpathos",
      "timezone" : "2"
    },
  "AOL" : { "altitude" : "230",
      "city" : "Paso De Los Libres",
      "country" : "Argentina",
      "dst" : "N",
      "iata" : "AOL",
      "icao" : "SARL",
      "latitude" : "-29.689425",
      "longitude" : "-57.152078",
      "name" : "Paso De Los Libres",
      "timezone" : "-3"
    },
  "AOO" : { "altitude" : "1504",
      "city" : "Altoona",
      "country" : "United States",
      "dst" : "A",
      "iata" : "AOO",
      "icao" : "KAOO",
      "latitude" : "40.296372",
      "longitude" : "-78.320022",
      "name" : "Altoona Blair Co",
      "timezone" : "-5"
    },
  "AOR" : { "altitude" : "15",
      "city" : "Alor Setar",
      "country" : "Malaysia",
      "dst" : "N",
      "iata" : "AOR",
      "icao" : "WMKA",
      "latitude" : "6.189667",
      "longitude" : "100.398183",
      "name" : "Sultan Abdul Halim",
      "timezone" : "8"
    },
  "AOS" : { "altitude" : "0",
      "city" : "Amook Bay",
      "country" : "United States",
      "dst" : "A",
      "iata" : "AOS",
      "icao" : "\\N",
      "latitude" : "57.471389",
      "longitude" : "-153.815278",
      "name" : "Amook Bay Seaplane Base",
      "timezone" : "-9"
    },
  "AOT" : { "altitude" : "1791",
      "city" : "Aosta",
      "country" : "Italy",
      "dst" : "E",
      "iata" : "AOT",
      "icao" : "LIMW",
      "latitude" : "45.738456",
      "longitude" : "7.368719",
      "name" : "Aosta Airport",
      "timezone" : "1"
    },
  "APA" : { "altitude" : "5883",
      "city" : "Denver",
      "country" : "United States",
      "dst" : "A",
      "iata" : "APA",
      "icao" : "KAPA",
      "latitude" : "39.570129",
      "longitude" : "-104.849294",
      "name" : "Centennial",
      "timezone" : "-7"
    },
  "APC" : { "altitude" : "35",
      "city" : "Napa",
      "country" : "United States",
      "dst" : "A",
      "iata" : "APC",
      "icao" : "KAPC",
      "latitude" : "38.2131944",
      "longitude" : "-122.2806944",
      "name" : "Napa County Airport",
      "timezone" : "-7"
    },
  "APF" : { "altitude" : "8",
      "city" : "Naples",
      "country" : "United States",
      "dst" : "A",
      "iata" : "APF",
      "icao" : "KAPF",
      "latitude" : "26.152619",
      "longitude" : "-81.775294",
      "name" : "Naples Muni",
      "timezone" : "-5"
    },
  "APG" : { "altitude" : "57",
      "city" : "Aberdeen",
      "country" : "United States",
      "dst" : "A",
      "iata" : "APG",
      "icao" : "KAPG",
      "latitude" : "39.466219",
      "longitude" : "-76.168808",
      "name" : "Phillips Aaf",
      "timezone" : "-5"
    },
  "APK" : { "altitude" : "8",
      "city" : "Apataki",
      "country" : "French Polynesia",
      "dst" : "U",
      "iata" : "APK",
      "icao" : "NTGD",
      "latitude" : "-15.5736",
      "longitude" : "-146.415",
      "name" : "Apataki Airport",
      "timezone" : "-10"
    },
  "APL" : { "altitude" : "1444",
      "city" : "Nampula",
      "country" : "Mozambique",
      "dst" : "U",
      "iata" : "APL",
      "icao" : "FQNP",
      "latitude" : "-15.105611",
      "longitude" : "39.2818",
      "name" : "Nampula",
      "timezone" : "2"
    },
  "APN" : { "altitude" : "689",
      "city" : "Alpena",
      "country" : "United States",
      "dst" : "A",
      "iata" : "APN",
      "icao" : "KAPN",
      "latitude" : "45.0781",
      "longitude" : "-83.5603",
      "name" : "Alpena County Regional Airport",
      "timezone" : "-5"
    },
  "APO" : { "altitude" : "0",
      "city" : "Apartadó",
      "country" : "Colombia",
      "dst" : "U",
      "iata" : "APO",
      "icao" : "",
      "latitude" : "7.033",
      "longitude" : "-77.2",
      "name" : "Apartadó Airport",
      "timezone" : "-5"
    },
  "APW" : { "altitude" : "58",
      "city" : "Faleolo",
      "country" : "Samoa",
      "dst" : "U",
      "iata" : "APW",
      "icao" : "NSFA",
      "latitude" : "-13.829969",
      "longitude" : "-172.008336",
      "name" : "Faleolo Intl",
      "timezone" : "-11"
    },
  "APZ" : { "altitude" : "3330",
      "city" : "ZAPALA",
      "country" : "Argentina",
      "dst" : "N",
      "iata" : "APZ",
      "icao" : "SAHZ",
      "latitude" : "-38.9755",
      "longitude" : "-70.113581",
      "name" : "ZAPALA",
      "timezone" : "-3"
    },
  "AQA" : { "altitude" : "2334",
      "city" : "Araracuara",
      "country" : "Brazil",
      "dst" : "S",
      "iata" : "AQA",
      "icao" : "SBAQ",
      "latitude" : "-21.812",
      "longitude" : "-48.133028",
      "name" : "Araraquara",
      "timezone" : "-3"
    },
  "AQC" : { "altitude" : "0",
      "city" : "Klawock",
      "country" : "United States",
      "dst" : "A",
      "iata" : "AQC",
      "icao" : "PAQC",
      "latitude" : "55.554658",
      "longitude" : "-133.101693",
      "name" : "Klawock Seaplane Base",
      "timezone" : "-9"
    },
  "AQG" : { "altitude" : "0",
      "city" : "Anqing",
      "country" : "China",
      "dst" : "N",
      "iata" : "AQG",
      "icao" : "ZSAQ",
      "latitude" : "30.5822",
      "longitude" : "117.0502",
      "name" : "Anqing Airport",
      "timezone" : "8"
    },
  "AQI" : { "altitude" : "1174",
      "city" : "Hafr Al-batin",
      "country" : "Saudi Arabia",
      "dst" : "U",
      "iata" : "AQI",
      "icao" : "OEPA",
      "latitude" : "28.335192",
      "longitude" : "46.125069",
      "name" : "Qaisumah",
      "timezone" : "3"
    },
  "AQJ" : { "altitude" : "175",
      "city" : "Aqaba",
      "country" : "Jordan",
      "dst" : "E",
      "iata" : "AQJ",
      "icao" : "OJAQ",
      "latitude" : "29.611619",
      "longitude" : "35.018067",
      "name" : "Aqaba King Hussein Intl",
      "timezone" : "2"
    },
  "AQP" : { "altitude" : "8405",
      "city" : "Arequipa",
      "country" : "Peru",
      "dst" : "U",
      "iata" : "AQP",
      "icao" : "SPQU",
      "latitude" : "-16.341072",
      "longitude" : "-71.583083",
      "name" : "Rodriguez Ballon",
      "timezone" : "-5"
    },
  "ARA" : { "altitude" : "24",
      "city" : "Louisiana",
      "country" : "United States",
      "dst" : "A",
      "iata" : "ARA",
      "icao" : "KARA",
      "latitude" : "30.037758",
      "longitude" : "-91.883896",
      "name" : "Acadiana Rgnl",
      "timezone" : "-6"
    },
  "ARB" : { "altitude" : "839",
      "city" : "Ann Arbor",
      "country" : "United States",
      "dst" : "A",
      "iata" : "ARB",
      "icao" : "KARB",
      "latitude" : "42.132274",
      "longitude" : "-83.444418",
      "name" : "Ann Arbor Municipal Airport",
      "timezone" : "-5"
    },
  "ARC" : { "altitude" : "2092",
      "city" : "Arctic Village",
      "country" : "United States",
      "dst" : "A",
      "iata" : "ARC",
      "icao" : "PARC",
      "latitude" : "68.1147",
      "longitude" : "-145.579",
      "name" : "Arctic Village Airport",
      "timezone" : "-9"
    },
  "ARD" : { "altitude" : "10",
      "city" : "Alor Island",
      "country" : "Indonesia",
      "dst" : "N",
      "iata" : "ARD",
      "icao" : "WATM",
      "latitude" : "-8.13234",
      "longitude" : "124.597",
      "name" : "Mali Airport",
      "timezone" : "8"
    },
  "ARE" : { "altitude" : "23",
      "city" : "Arecibo",
      "country" : "Puerto Rico",
      "dst" : "N",
      "iata" : "ARE",
      "icao" : "TJAB",
      "latitude" : "18.451111",
      "longitude" : "-66.675556",
      "name" : "Antonio Juarbe Pol Airport",
      "timezone" : "-4"
    },
  "ARH" : { "altitude" : "19",
      "city" : "Arkhangelsk",
      "country" : "Russia",
      "dst" : "N",
      "iata" : "ARH",
      "icao" : "ULAA",
      "latitude" : "64.360281",
      "longitude" : "40.430167",
      "name" : "Talagi",
      "timezone" : "4"
    },
  "ARI" : { "altitude" : "167",
      "city" : "Arica",
      "country" : "Chile",
      "dst" : "S",
      "iata" : "ARI",
      "icao" : "SCAR",
      "latitude" : "-18.348531",
      "longitude" : "-70.338742",
      "name" : "Chacalluta",
      "timezone" : "-4"
    },
  "ARK" : { "altitude" : "4550",
      "city" : "Arusha",
      "country" : "Tanzania",
      "dst" : "U",
      "iata" : "ARK",
      "icao" : "HTAR",
      "latitude" : "-3.367794",
      "longitude" : "36.633333",
      "name" : "Arusha",
      "timezone" : "3"
    },
  "ARM" : { "altitude" : "3556",
      "city" : "Armidale",
      "country" : "Australia",
      "dst" : "O",
      "iata" : "ARM",
      "icao" : "YARM",
      "latitude" : "-30.528056",
      "longitude" : "151.617222",
      "name" : "Armidale",
      "timezone" : "10"
    },
  "ARN" : { "altitude" : "137",
      "city" : "Stockholm",
      "country" : "Sweden",
      "dst" : "E",
      "iata" : "ARN",
      "icao" : "ESSA",
      "latitude" : "59.651944",
      "longitude" : "17.918611",
      "name" : "Arlanda",
      "timezone" : "1"
    },
  "ARR" : { "altitude" : "2145",
      "city" : "Alto Rio Senguer",
      "country" : "Argentina",
      "dst" : "N",
      "iata" : "ARR",
      "icao" : "SAVR",
      "latitude" : "-45.016667",
      "longitude" : "-70.816667",
      "name" : "Alto Rio Senguer Airport",
      "timezone" : "-3"
    },
  "ART" : { "altitude" : "325",
      "city" : "Watertown",
      "country" : "United States",
      "dst" : "A",
      "iata" : "ART",
      "icao" : "KART",
      "latitude" : "43.991922",
      "longitude" : "-76.021739",
      "name" : "Watertown Intl",
      "timezone" : "-5"
    },
  "ARU" : { "altitude" : "1361",
      "city" : "Aracatuba",
      "country" : "Brazil",
      "dst" : "S",
      "iata" : "ARU",
      "icao" : "SBAU",
      "latitude" : "-21.141342",
      "longitude" : "-50.424722",
      "name" : "Aracatuba",
      "timezone" : "-3"
    },
  "ARV" : { "altitude" : "1629",
      "city" : "Minocqua - Woodruff",
      "country" : "United States",
      "dst" : "A",
      "iata" : "ARV",
      "icao" : "KARV",
      "latitude" : "45.927778",
      "longitude" : "-89.730833",
      "name" : "Lakeland",
      "timezone" : "-6"
    },
  "ARW" : { "altitude" : "352",
      "city" : "Arad",
      "country" : "Romania",
      "dst" : "E",
      "iata" : "ARW",
      "icao" : "LRAR",
      "latitude" : "46.17655",
      "longitude" : "21.262022",
      "name" : "Arad",
      "timezone" : "2"
    },
  "ASA" : { "altitude" : "46",
      "city" : "Assab",
      "country" : "Eritrea",
      "dst" : "U",
      "iata" : "ASA",
      "icao" : "HHSB",
      "latitude" : "13.071783",
      "longitude" : "42.645006",
      "name" : "Assab Intl",
      "timezone" : "3"
    },
  "ASB" : { "altitude" : "692",
      "city" : "Ashkhabad",
      "country" : "Turkmenistan",
      "dst" : "U",
      "iata" : "ASB",
      "icao" : "UTAA",
      "latitude" : "37.986814",
      "longitude" : "58.360967",
      "name" : "Ashgabat",
      "timezone" : "5"
    },
  "ASD" : { "altitude" : "5",
      "city" : "Andros Town",
      "country" : "Bahamas",
      "dst" : "U",
      "iata" : "ASD",
      "icao" : "MYAF",
      "latitude" : "24.698283",
      "longitude" : "-77.795611",
      "name" : "Fresh Creek",
      "timezone" : "-5"
    },
  "ASE" : { "altitude" : "7820",
      "city" : "Aspen",
      "country" : "United States",
      "dst" : "A",
      "iata" : "ASE",
      "icao" : "KASE",
      "latitude" : "39.2232",
      "longitude" : "-106.869",
      "name" : "Aspen Pitkin County Sardy Field",
      "timezone" : "-7"
    },
  "ASF" : { "altitude" : "-65",
      "city" : "Astrakhan",
      "country" : "Russia",
      "dst" : "N",
      "iata" : "ASF",
      "icao" : "URWA",
      "latitude" : "46.283333",
      "longitude" : "48.006278",
      "name" : "Astrakhan",
      "timezone" : "6"
    },
  "ASH" : { "altitude" : "199",
      "city" : "Nashua",
      "country" : "United States",
      "dst" : "A",
      "iata" : "ASH",
      "icao" : "KASH",
      "latitude" : "42.78175",
      "longitude" : "-71.5147778",
      "name" : "Boire Field Airport",
      "timezone" : "-4"
    },
  "ASI" : { "altitude" : "278",
      "city" : "Georgetown Acension Island Santa Helena",
      "country" : "United Kingdom",
      "dst" : "U",
      "iata" : "ASI",
      "icao" : "\\N",
      "latitude" : "-7.969597",
      "longitude" : "-14.393664",
      "name" : "Wideawake Field",
      "timezone" : "0"
    },
  "ASJ" : { "altitude" : "27",
      "city" : "Amami",
      "country" : "Japan",
      "dst" : "U",
      "iata" : "ASJ",
      "icao" : "RJKA",
      "latitude" : "28.430633",
      "longitude" : "129.712542",
      "name" : "Amami",
      "timezone" : "9"
    },
  "ASK" : { "altitude" : "699",
      "city" : "Yamoussoukro",
      "country" : "Cote d'Ivoire",
      "dst" : "N",
      "iata" : "ASK",
      "icao" : "DIYO",
      "latitude" : "6.903167",
      "longitude" : "-5.365581",
      "name" : "Yamoussoukro",
      "timezone" : "0"
    },
  "ASM" : { "altitude" : "7661",
      "city" : "Asmara",
      "country" : "Eritrea",
      "dst" : "U",
      "iata" : "ASM",
      "icao" : "HHAS",
      "latitude" : "15.291853",
      "longitude" : "38.910667",
      "name" : "Asmara Intl",
      "timezone" : "3"
    },
  "ASO" : { "altitude" : "5120",
      "city" : "Asosa",
      "country" : "Ethiopia",
      "dst" : "U",
      "iata" : "ASO",
      "icao" : "HASO",
      "latitude" : "10.01855",
      "longitude" : "34.586253",
      "name" : "Asosa",
      "timezone" : "3"
    },
  "ASP" : { "altitude" : "1789",
      "city" : "Alice Springs",
      "country" : "Australia",
      "dst" : "N",
      "iata" : "ASP",
      "icao" : "YBAS",
      "latitude" : "-23.806667",
      "longitude" : "133.902222",
      "name" : "Alice Springs",
      "timezone" : "9.5"
    },
  "ASR" : { "altitude" : "3463",
      "city" : "Kayseri",
      "country" : "Turkey",
      "dst" : "E",
      "iata" : "ASR",
      "icao" : "LTAU",
      "latitude" : "38.770386",
      "longitude" : "35.495428",
      "name" : "Erkilet",
      "timezone" : "2"
    },
  "AST" : { "altitude" : "15",
      "city" : "Astoria",
      "country" : "United States",
      "dst" : "A",
      "iata" : "AST",
      "icao" : "KAST",
      "latitude" : "46.157972",
      "longitude" : "-123.878694",
      "name" : "Astoria Regional Airport",
      "timezone" : "-8"
    },
  "ASU" : { "altitude" : "292",
      "city" : "Asuncion",
      "country" : "Paraguay",
      "dst" : "S",
      "iata" : "ASU",
      "icao" : "SGAS",
      "latitude" : "-25.23985",
      "longitude" : "-57.519133",
      "name" : "Silvio Pettirossi Intl",
      "timezone" : "-4"
    },
  "ASV" : { "altitude" : "3755",
      "city" : "Amboseli National Park",
      "country" : "Kenya",
      "dst" : "U",
      "iata" : "ASV",
      "icao" : "HKAM",
      "latitude" : "-2.64505",
      "longitude" : "37.2531",
      "name" : "Amboseli Airport",
      "timezone" : "3"
    },
  "ASW" : { "altitude" : "662",
      "city" : "Aswan",
      "country" : "Egypt",
      "dst" : "U",
      "iata" : "ASW",
      "icao" : "HESN",
      "latitude" : "23.964356",
      "longitude" : "32.819975",
      "name" : "Aswan Intl",
      "timezone" : "2"
    },
  "ATA" : { "altitude" : "9097",
      "city" : "Anta",
      "country" : "Peru",
      "dst" : "U",
      "iata" : "ATA",
      "icao" : "SPHZ",
      "latitude" : "-9.347444",
      "longitude" : "-77.598392",
      "name" : "Comandante Fap German Arias Graziani",
      "timezone" : "-5"
    },
  "ATB" : { "altitude" : "1181",
      "city" : "Atbara",
      "country" : "Sudan",
      "dst" : "U",
      "iata" : "ATB",
      "icao" : "HSAT",
      "latitude" : "17.7",
      "longitude" : "33.967",
      "name" : "Atbara Airport",
      "timezone" : "2"
    },
  "ATC" : { "altitude" : "18",
      "city" : "Arthur's Town",
      "country" : "Bahamas",
      "dst" : "U",
      "iata" : "ATC",
      "icao" : "MYCA",
      "latitude" : "24.629417",
      "longitude" : "-75.673775",
      "name" : "Arthurs Town Airport",
      "timezone" : "-5"
    },
  "ATD" : { "altitude" : "0",
      "city" : "Atoifi",
      "country" : "Solomon Islands",
      "dst" : "U",
      "iata" : "ATD",
      "icao" : "AGAT",
      "latitude" : "-8.87333",
      "longitude" : "161.011",
      "name" : "Uru Harbour Airport",
      "timezone" : "11"
    },
  "ATF" : { "altitude" : "8502",
      "city" : "Ambato",
      "country" : "Ecuador",
      "dst" : "U",
      "iata" : "ATF",
      "icao" : "SEAM",
      "latitude" : "-1.212067",
      "longitude" : "-78.574636",
      "name" : "Chachoan",
      "timezone" : "-5"
    },
  "ATH" : { "altitude" : "308",
      "city" : "Athens",
      "country" : "Greece",
      "dst" : "E",
      "iata" : "ATH",
      "icao" : "LGAV",
      "latitude" : "37.936358",
      "longitude" : "23.944467",
      "name" : "Eleftherios Venizelos Intl",
      "timezone" : "2"
    },
  "ATJ" : { "altitude" : "4913",
      "city" : "Antsirabe",
      "country" : "Madagascar",
      "dst" : "U",
      "iata" : "ATJ",
      "icao" : "FMME",
      "latitude" : "-19.836944",
      "longitude" : "47.065278",
      "name" : "Antsirabe",
      "timezone" : "3"
    },
  "ATK" : { "altitude" : "96",
      "city" : "Atqasuk",
      "country" : "United States",
      "dst" : "A",
      "iata" : "ATK",
      "icao" : "PATQ",
      "latitude" : "70.4673",
      "longitude" : "-157.436",
      "name" : "Atqasuk Edward Burnell Sr Memorial Airport",
      "timezone" : "-9"
    },
  "ATL" : { "altitude" : "1026",
      "city" : "Atlanta",
      "country" : "United States",
      "dst" : "A",
      "iata" : "ATL",
      "icao" : "KATL",
      "latitude" : "33.636719",
      "longitude" : "-84.428067",
      "name" : "Hartsfield Jackson Atlanta Intl",
      "timezone" : "-5"
    },
  "ATM" : { "altitude" : "368",
      "city" : "Altamira",
      "country" : "Brazil",
      "dst" : "S",
      "iata" : "ATM",
      "icao" : "SBHT",
      "latitude" : "-3.253906",
      "longitude" : "-52.253978",
      "name" : "Altamira",
      "timezone" : "-3"
    },
  "ATP" : { "altitude" : "48",
      "city" : "Aitape",
      "country" : "Papua New Guinea",
      "dst" : "U",
      "iata" : "ATP",
      "icao" : "",
      "latitude" : "-3.18985",
      "longitude" : "142.43",
      "name" : "Tadji Airport",
      "timezone" : "10"
    },
  "ATQ" : { "altitude" : "756",
      "city" : "Amritsar",
      "country" : "India",
      "dst" : "N",
      "iata" : "ATQ",
      "icao" : "VIAR",
      "latitude" : "31.709594",
      "longitude" : "74.797264",
      "name" : "Amritsar",
      "timezone" : "5.5"
    },
  "ATR" : { "altitude" : "758",
      "city" : "Atar",
      "country" : "Mauritania",
      "dst" : "N",
      "iata" : "ATR",
      "icao" : "GQPA",
      "latitude" : "20.506828",
      "longitude" : "-13.043194",
      "name" : "Atar",
      "timezone" : "0"
    },
  "ATT" : { "altitude" : "0",
      "city" : "Austin TX",
      "country" : "United States",
      "dst" : "A",
      "iata" : "ATT",
      "icao" : "KATT",
      "latitude" : "30.31666",
      "longitude" : "-97.7666",
      "name" : "Camp Mabry Austin City",
      "timezone" : "-6"
    },
  "ATW" : { "altitude" : "680",
      "city" : "Appleton",
      "country" : "United States",
      "dst" : "A",
      "iata" : "ATW",
      "icao" : "KATW",
      "latitude" : "44.257526",
      "longitude" : "-88.507576",
      "name" : "Appleton",
      "timezone" : "-6"
    },
  "ATY" : { "altitude" : "1748",
      "city" : "Watertown",
      "country" : "United States",
      "dst" : "A",
      "iata" : "ATY",
      "icao" : "KATY",
      "latitude" : "44.914",
      "longitude" : "-97.1547",
      "name" : "Watertown Regional Airport",
      "timezone" : "-6"
    },
  "ATZ" : { "altitude" : "772",
      "city" : "Asyut",
      "country" : "Egypt",
      "dst" : "U",
      "iata" : "ATZ",
      "icao" : "HEAT",
      "latitude" : "27.046508",
      "longitude" : "31.011983",
      "name" : "Asyut International Airport",
      "timezone" : "2"
    },
  "AUA" : { "altitude" : "60",
      "city" : "Oranjestad",
      "country" : "Aruba",
      "dst" : "U",
      "iata" : "AUA",
      "icao" : "TNCA",
      "latitude" : "12.501389",
      "longitude" : "-70.015221",
      "name" : "Reina Beatrix Intl",
      "timezone" : "-4"
    },
  "AUB" : { "altitude" : "1200",
      "city" : "Augsburg",
      "country" : "Germany",
      "dst" : "E",
      "iata" : "AUB",
      "icao" : "AUGS",
      "latitude" : "48.3655",
      "longitude" : "10.886",
      "name" : "Augsburg HBF",
      "timezone" : "1"
    },
  "AUC" : { "altitude" : "420",
      "city" : "Arauca",
      "country" : "Colombia",
      "dst" : "U",
      "iata" : "AUC",
      "icao" : "SKUC",
      "latitude" : "7.068881",
      "longitude" : "-70.736925",
      "name" : "Santiago Perez",
      "timezone" : "-5"
    },
  "AUF" : { "altitude" : "523",
      "city" : "Auxerre",
      "country" : "France",
      "dst" : "E",
      "iata" : "AUF",
      "icao" : "LFLA",
      "latitude" : "47.850193",
      "longitude" : "3.497111",
      "name" : "Branches",
      "timezone" : "1"
    },
  "AUG" : { "altitude" : "352",
      "city" : "Augusta",
      "country" : "United States",
      "dst" : "A",
      "iata" : "AUG",
      "icao" : "KAUG",
      "latitude" : "44.320647",
      "longitude" : "-69.797317",
      "name" : "Augusta State",
      "timezone" : "-5"
    },
  "AUH" : { "altitude" : "88",
      "city" : "Abu Dhabi",
      "country" : "United Arab Emirates",
      "dst" : "U",
      "iata" : "AUH",
      "icao" : "OMAA",
      "latitude" : "24.432972",
      "longitude" : "54.651138",
      "name" : "Abu Dhabi Intl",
      "timezone" : "4"
    },
  "AUJ" : { "altitude" : "160",
      "city" : "Ambunti",
      "country" : "Papua New Guinea",
      "dst" : "U",
      "iata" : "AUJ",
      "icao" : "\\N",
      "latitude" : "-4.15",
      "longitude" : "142.51",
      "name" : "Ambunti",
      "timezone" : "-10"
    },